V,4,4,13,32,80,160,37*41
$GPGLL,3236.19974,N,05139.34602,E,075631.00,A,A*64
$GPRMC,075632.00,A,3236.19975,N,05139.34603,E,0.128,,280823,,,A*76
$GPVTG,,T,,M,0.128,N,0.237,K,A*2E
$GPGGA,075632.00,3236.19975,N,05139.34603,E,1,07,1.50,1737.4,M,-17.6,M,,*4A
$GPGSA,A,3,27,10,23,08,21,02,32,,,,,,2.85,1.50,2.42*00
$GPGSV,4,1,13,01,,,26,02,21,315,31,08,42,283,35,09,,,29*7C
$GPGSV,4,2,13,10,52,030,27,18,16,120,27,21,30,316,32,23,22,062,27*70
$GPGSV,4,3,13,24,06,044,26,27,49,227,23,28,16,155,22,31,,,26*4C
$GPGSV,4,4,13,32,80,160,29*4E
$GPGLL,3236.19975,N,05139.34603,E,075632.00,A,A*67
$GPRMC,075633.00,A,3236.19972,N,05139.34605,E,0.042,,280823,,,A*7B
$GPVTG,,T,,M,0.042,N,0.079,K,A*2B
$GPGGA,075633.00,3236.19972,N,05139.34605,E,1,07,1.50,1737.3,M,-17.6,M,,*4D
$GPGSA,A,3,27,10,23,08,21,02,32,,,,,,2.84,1.50,2.42*01
$GPGSV,4,1,13,01,,,26,02,21,315,33,08,42,283,36,09,,,28*7C
$GPGSV,4,2,13,10,52,030,29,18,16,120,27,21,30,316,31,23,22,062,28*72
$GPGSV,4,3,13,24,06,044,,27,49,227,22,28,16,155,21,31,,,26*4A
$GPGSV,4,4,13,32,80,160,30*46
$GPGLL,3236.19972,N,05139.34605,E,075633.00,A,A*67
$GPRMC,075634.00,A,3236.19978,N,05139.34604,E,0.093,,280823,,,A*7B
$GPVTG,,T,,M,0.093,N,0.173,K,A*2C
$GPGGA,075634.00,3236.19978,N,05139.34604,E,1,07,1.50,1737.5,M,-17.6,M,,*47
$GPGSA,A,3,27,10,23,08,21,02,32,,,,,,2.84,1.50,2.42*01
$GPGSV,4,1,13,01,,,27,02,21,315,35,08,42,283,34,09,,,28*79
$GPGSV,4,2,13,10,52,030,31,18,16,120,28,21,30,316,31,23,22,062,29*75
$GPGSV,4,3,13,24,06,044,,27,49,227,21,28,16,155,20,31,,,27*49
$GPGSV,4,4,13,32,80,160,31*47
$GPGLL,3236.19978,N,05139.34604,E,075634.00,A,A*6B
$GPRMC,075635.00,A,3236.19980,N,05139.34612,E,0.110,,280823,,,A*70
$GPVTG,,T,,M,0.110,N,0.203,K,A*22
$GPGGA,075635.00,3236.19980,N,05139.34612,E,1,07,1.50,1737.5,M,-17.6,M,,*46
$GPGSA,A,3,27,10,23,08,21,02,32,,,,,,2.84,1.50,2.42*01
$GPGSV,4,1,13,01,,,29,02,21,315,40,08,42,283,42,09,,,29*75
$GPGSV,4,2,13,10,52,030,38,18,16,120,30,21,30,316,38,23,22,062,34*70
$GPGSV,4,3,13,24,06,044,,27,49,227,20,28,16,155,22,31,,,28*45
$GPGSV,4,4,13,32,80,160,37*41
$GPGLL,3236.19980,N,05139.34612,E,075635.00,A,A*6A
$GPRMC,075636.00,A,3236.19984,N,05139.34617,E,0.053,,280823,,,A*74
$GPVTG,,T,,M,0.053,N,0.097,K,A*2B
$GPGGA,075636.00,3236.19984,N,05139.34617,E,1,07,1.50,1738.1,M,-17.6,M,,*4F
$GPGSA,A,3,27,10,23,08,21,02,32,,,,,,2.84,1.50,2.42*01
$GPGSV,4,1,13,01,,,33,02,21,315,33,08,42,283,45,09,,,33*76
$GPGSV,4,2,13,10,52,030,42,18,16,120,36,21,30,316,29,23,22,062,36*79
$GPGSV,4,3,13,24,06,044,,27,49,227,23,28,16,155,24,31,,,32*4B
$GPGSV,4,4,13,32,80,160,40*41
$GPGLL,3236.19984,N,05139.34617,E,075636.00,A,A*68
$GPRMC,075637.00,A,3236.19985,N,05139.34615,E,0.142,,280823,,,A*77
$GPVTG,,T,,M,0.142,N,0.263,K,A*23
$GPGGA,075637.00,3236.19985,N,05139.34615,E,1,08,1.50,1738.5,M,-17.6,M,,*46
$GPGSA,A,3,27,10,23,08,24,21,02,32,,,,,2.84,1.50,2.42*07
$GPGSV,4,1,13,01,,,31,02,21,315,32,08,42,283,41,09,,,31*73
$GPGSV,4,2,13,10,52,030,36,18,16,120,27,21,30,316,29,23,22,062,29*74
$GPGSV,4,3,13,24,06,044,13,27,49,227,23,28,16,155,24,31,-1,178,31*68
$GPGSV,4,4,13,32,80,160,35*43
$GPGLL,3236.19985,N,05139.34615,E,075637.00,A,A*6A
$GPRMC,075638.00,A,3236.19996,N,05139.34614,E,0.122,,280823,,,A*7D
$GPVTG,,T,,M,0.122,N,0.226,K,A*24
$GPGGA,075638.00,3236.19996,N,05139.34614,E,1,08,1.50,1739.1,M,-17.6,M,,*4F
$GPGSA,A,3,27,10,23,08,24,21,02,32,,,,,2.84,1.50,2.42*07
$GPGSV,3,1,12,01,,,31,02,21,315,43,08,42,283,46,09,,,31*74
$GPGSV,3,2,12,10,52,030,41,18,16,120,32,21,30,316,36,23,22,062,33*73
$GPGSV,3,3,12,24,06,044,12,27,49,227,21,28,16,155,26,32,80,160,38*78
$GPGLL,3236.19996,N,05139.34614,E,075638.00,A,A*66
$GPRMC,075639.00,A,3236.20001,N,05139.34613,E,0.098,,280823,,,A*76
$GPVTG,,T,,M,0.098,N,0.182,K,A*29
$GPGGA,075639.00,3236.20001,N,05139.34613,E,1,07,2.32,1739.2,M,-17.6,M,,*4F
$GPGSA,A,3,10,23,08,24,21,02,32,,,,,,3.65,2.32,2.81*04
$GPGSV,3,1,12,01,,,32,02,21,315,37,08,42,283,38,09,,,33*7F
$GPGSV,3,2,12,10,52,030,35,18,16,120,33,21,30,316,33,23,22,062,31*76
$GPGSV,3,3,12,24,06,044,28,27,49,227,,28,16,155,27,32,80,160,31*7A
$GPGLL,3236.20001,N,05139.34613,E,075639.00,A,A*6D
$GPRMC,075640.00,A,3236.19979,N,05139.34629,E,0.024,,280823,,,A*7A
$GPVTG,,T,,M,0.024,N,0.044,K,A*25
$GPGGA,075640.00,3236.19979,N,05139.34629,E,1,07,2.27,1738.3,M,-17.6,M,,*40
$GPGSA,A,3,10,23,08,24,21,02,32,,,,,,3.28,2.27,2.38*0B
$GPGSV,3,1,12,01,,,27,02,21,315,42,08,42,283,45,09,,,28*79
$GPGSV,3,2,12,10,52,030,34,18,16,120,28,21,30,316,42,23,22,062,37*7D
$GPGSV,3,3,12,24,06,044,33,27,49,227,20,28,16,155,25,32,80,160,35*74
$GPGLL,3236.19979,N,05139.34629,E,075640.00,A,A*66
$GPRMC,075641.00,A,3236.19980,N,05139.34631,E,0.086,,280823,,,A*7C
$GPVTG,,T,,M,0.086,N,0.159,K,A*20
$GPGGA,075641.00,3236.19980,N,05139.34631,E,1,07,2.27,1738.2,M,-17.6,M,,*4F
$GPGSA,A,3,10,23,08,24,21,02,32,,,,,,3.28,2.27,2.38*0B
$GPGSV,3,1,12,01,,,28,02,21,315,35,08,42,283,36,09,,,27*7D
$GPGSV,3,2,12,10,52,030,29,18,16,120,27,21,30,316,32,23,22,062,30*7E
$GPGSV,3,3,12,24,06,044,22,27,49,227,,28,16,155,23,32,80,160,28*7C
$GPGLL,3236.19980,N,05139.34631,E,075641.00,A,A*68
$GPRMC,075642.00,A,3236.19984,N,05139.34634,E,0.086,,280823,,,A*7E
$GPVTG,,T,,M,0.086,N,0.159,K,A*20
$GPGGA,075642.00,3236.19984,N,05139.34634,E,1,07,2.27,1738.0,M,-17.6,M,,*4F
$GPGSA,A,3,10,23,08,24,21,02,32,,,,,,3.28,2.27,2.38*0B
$GPGSV,3,1,12,01,,,27,02,21,315,41,08,42,283,43,09,,,27*73
$GPGSV,3,2,12,10,52,030,37,18,16,120,26,21,30,316,38,23,22,062,37*7D
$GPGSV,3,3,12,24,06,044,24,27,49,227,,28,16,155,19,32,80,160,28*73
$GPGLL,3236.19984,N,05139.34634,E,075642.00,A,A*6A
$GPRMC,075643.00,A,3236.19983,N,05139.34637,E,0.068,,280823,,,A*7B
$GPVTG,,T,,M,0.068,N,0.126,K,A*28
$GPGGA,075643.00,3236.19983,N,05139.34637,E,1,07,2.27,1737.9,M,-17.6,M,,*4C
$GPGSA,A,3,10,23,08,24,21,02,32,,,,,,3.28,2.27,2.38*0B
$GPGSV,3,1,12,01,,,29,02,21,315,43,08,42,283,45,09,,,29*77
$GPGSV,3,2,12,10,52,030,40,18,16,120,29,21,30,316,40,23,22,062,39*73
$GPGSV,3,3,12,24,06,044,31,27,49,227,,28,16,155,21,32,80,160,34*71
$GPGLL,3236.19983,N,05139.34637,E,075643.00,A,A*6F
$GPRMC,075644.00,A,3236.19981,N,05139.34637,E,0.022,,280823,,,A*70
$GPVTG,,T,,M,0.022,N,0.041,K,A*26
$GPGGA,075644.00,3236.19981,N,05139.34637,E,1,07,2.27,1737.9,M,-17.6,M,,*49
$GPGSA,A,3,10,23,08,24,21,02,32,,,,,,3.28,2.27,2.38*0B
$GPGSV,3,1,11,01,,,29,02,21,315,43,08,42,283,45,10,52,030,40*47
$GPGSV,3,2,11,18,16,120,31,21,30,316,41,23,22,062,39,24,06,044,31*7B
$GPGSV,3,3,11,27,49,227,,28,16,155,22,32,80,160,35*42
$GPGLL,3236.19981,N,05139.34637,E,075644.00,A,A*6A
$GPRMC,075645.00,A,3236.19981,N,05139.34636,E,0.061,,280823,,,A*77
$GPVTG,,T,,M,0.061,N,0.113,K,A*27
$GPGGA,075645.00,3236.19981,N,05139.34636,E,1,07,2.27,1737.9,M,-17.6,M,,*49
$GPGSA,A,3,10,23,08,24,21,02,32,,,,,,3.28,2.27,2.38*0B
$GPGSV,3,1,11,01,,,28,02,21,315,43,08,42,283,45,10,52,030,37*46
$GPGSV,3,2,11,18,16,120,,21,30,316,39,23,22,062,34,24,06,044,30*7A
$GPGSV,3,3,11,27,49,227,25,28,16,155,24,32,80,160,34*42
$GPGLL,3236.19981,N,05139.34636,E,075645.00,A,A*6A
$GPRMC,075646.00,A,3236.19980,N,05139.34634,E,0.044,,280823,,,A*70
$GPVTG,,T,,M,0.044,N,0.082,K,A*29
$GPGGA,075646.00,3236.19980,N,05139.34634,E,1,07,2.27,1737.9,M,-17.6,M,,*49
$GPGSA,A,3,10,23,08,24,21,02,32,,,,,,3.28,2.27,2.37*04
$GPGSV,3,1,11,01,,,27,02,21,315,42,08,42,283,42,10,52,030,39*41
$GPGSV,3,2,11,18,16,120,20,21,30,316,40,23,22,062,32,24,06,044,29*78
$GPGSV,3,3,11,27,49,227,,28,16,155,24,32,80,160,35*44
$GPGLL,3236.19980,N,05139.34634,E,075646.00,A,A*6A
$GPRMC,075647.00,A,3236.19978,N,05139.34635,E,0.103,,280823,,,A*75
$GPVTG,,T,,M,0.103,N,0.190,K,A*29
$GPGGA,075647.00,3236.19978,N,05139.34635,E,1,07,2.27,1737.9,M,-17.6,M,,*4E
$GPGSA,A,3,10,23,08,24,21,02,32,,,,,,3.28,2.27,2.37*04
$GPGSV,3,1,11,01,,,32,02,21,315,42,08,42,283,41,10,52,030,36*49
$GPGSV,3,2,11,18,16,120,17,21,30,316,39,23,22,062,33,24,06,044,29*73
$GPGSV,3,3,11,27,49,227,,28,16,155,25,32,80,160,34*44
$GPGLL,3236.19978,N,05139.34635,E,075647.00,A,A*6D
$GPRMC,075648.00,A,3236.19974,N,05139.34635,E,0.024,,280823,,,A*72
$GPVTG,,T,,M,0.024,N,0.045,K,A*24
$GPGGA,075648.00,3236.19974,N,05139.34635,E,1,07,2.27,1737.7,M,-17.6,M,,*43
$GPGSA,A,3,10,23,08,24,21,02,32,,,,,,3.28,2.27,2.37*04
$GPGSV,3,1,11,01,,,27,02,21,315,44,08,42,283,42,10,52,030,41*48
$GPGSV,3,2,11,18,16,120,17,21,30,316,42,23,22,062,36,24,06,044,22*71
$GPGSV,3,3,11,27,49,227,,28,16,155,25,32,80,160,37*47
$GPGLL,3236.19974,N,05139.34635,E,075648.00,A,A*6E
$GPRMC,075649.00,A,3236.19967,N,05139.34635,E,0.040,,280823,,,A*73
$GPVTG,,T,,M,0.040,N,0.074,K,A*24
$GPGGA,075649.00,3236.19967,N,05139.34635,E,1,08,2.27,1737.5,M,-17.6,M,,*4D
$GPGSA,A,3,27,10,23,08,24,21,02,32,,,,,3.28,2.27,2.37*01
$GPGSV,3,1,11,01,,,27,02,21,315,37,08,42,283,43,10,52,030,42*4E
$GPGSV,3,2,11,18,16,120,16,21,30,316,33,23,22,062,37,24,06,044,22*77
$GPGSV,3,3,11,27,49,227,25,28,16,155,27,32,80,160,38*4D
$GPGLL,3236.19967,N,05139.34635,E,075649.00,A,A*6D
$GPRMC,075650.00,A,3236.19956,N,05139.34633,E,0.026,,280823,,,A*7F
$GPVTG,,T,,M,0.026,N,0.049,K,A*2A
$GPGGA,075650.00,3236.19956,N,05139.34633,E,1,08,1.43,1737.3,M,-17.6,M,,*46
$GPGSA,A,3,27,10,23,08,24,21,02,32,,,,,2.42,1.43,1.95*06
$GPGSV,3,1,11,01,,,27,02,21,315,43,08,42,283,42,10,52,030,43*4D
$GPGSV,3,2,11,18,16,120,15,21,30,316,41,23,22,062,37,24,06,044,23*70
$GPGSV,3,3,11,27,49,227,26,28,16,155,26,32,80,160,36*41
$GPGLL,3236.19956,N,05139.34633,E,075650.00,A,A*61
$GPRMC,075651.00,A,3236.19951,N,05139.34632,E,0.013,,280823,,,A*7E
$GPVTG,,T,,M,0.013,N,0.024,K,A*27
$GPGGA,075651.00,3236.19951,N,05139.34632,E,1,08,1.43,1737.3,M,-17.6,M,,*41
$GPGSA,A,3,27,10,23,08,24,21,02,32,,,,,2.42,1.43,1.95*06
$GPGSV,3,1,11,01,,,35,02,21,315,40,08,42,283,42,10,52,030,38*41
$GPGSV,3,2,11,18,16,120,13,21,30,316,39,23,22,062,34,24,06,044,30*78
$GPGSV,3,3,11,27,49,227,26,28,16,155,25,32,80,160,37*43
$GPGLL,3236.19951,N,05139.34632,E,075651.00,A,A*66
$GPRMC,075652.00,A,3236.19953,N,05139.34631,E,0.057,,280823,,,A*7C
$GPVTG,,T,,M,0.057,N,0.106,K,A*26
$GPGGA,075652.00,3236.19953,N,05139.34631,E,1,08,1.43,1737.5,M,-17.6,M,,*45
$GPGSA,A,3,27,10,23,08,24,21,02,32,,,,,2.42,1.43,1.95*06
$GPGSV,3,1,11,01,,,34,02,21,315,39,08,42,283,43,10,52,030,36*41
$GPGSV,3,2,11,18,16,120,10,21,30,316,38,23,22,062,36,24,06,044,30*78
$GPGSV,3,3,11,27,49,227,27,28,16,155,24,32,80,160,38*4C
$GPGLL,3236.19953,N,05139.34631,E,075652.00,A,A*64
$GPRMC,075653.00,A,3236.19953,N,05139.34630,E,0.064,,280823,,,A*7C
$GPVTG,,T,,M,0.064,N,0.119,K,A*28
$GPGGA,075653.00,3236.19953,N,05139.34630,E,1,08,1.43,1737.5,M,-17.6,M,,*45
$GPGSA,A,3,27,10,23,08,24,21,02,32,,,,,2.42,1.43,1.95*06
$GPGSV,3,1,11,01,,,31,02,21,315,39,08,42,283,42,10,52,030,37*44
$GPGSV,3,2,11,18,16,120,09,21,30,316,38,23,22,062,35,24,06,044,29*7B
$GPGSV,3,3,11,27,49,227,26,28,16,155,22,32,80,160,38*4B
$GPGLL,3236.19953,N,05139.34630,E,075653.00,A,A*64
$GPRMC,075654.00,A,3236.19958,N,05139.34629,E,0.040,,280823,,,A*7E
$GPVTG,,T,,M,0.040,N,0.074,K,A*24
$GPGGA,075654.00,3236.19958,N,05139.34629,E,1,08,1.43,1737.6,M,-17.6,M,,*42
$GPGSA,A,3,27,10,23,08,24,21,02,32,,,,,2.42,1.43,1.95*06
$GPGSV,3,1,11,01,,,34,02,21,315,41,08,42,283,43,10,52,030,36*4E
$GPGSV,3,2,11,18,16,120,08,21,30,316,38,23,22,062,36,24,06,044,29*79
$GPGSV,3,3,11,27,49,227,27,28,16,155,21,32,80,160,38*49
$GPGLL,3236.19958,N,05139.34629,E,075654.00,A,A*60
$GPRMC,075655.00,A,3236.19965,N,05139.34629,E,0.041,,280823,,,A*70
$GPVTG,,T,,M,0.041,N,0.075,K,A*24
$GPGGA,075655.00,3236.19965,N,05139.34629,E,1,08,1.43,1737.6,M,-17.6,M,,*4D
$GPGSA,A,3,27,10,23,08,24,21,02,32,,,,,2.42,1.43,1.95*06
$GPGSV,3,1,11,01,,,34,02,21,315,42,08,42,283,43,10,52,030,37*4C
$GPGSV,3,2,11,18,16,120,08,21,30,316,38,23,22,062,35,24,06,044,28*7B
$GPGSV,3,3,11,27,49,227,27,28,16,155,20,32,80,160,38*48
$GPGLL,3236.19965,N,05139.34629,E,075655.00,A,A*6F
$GPRMC,075656.00,A,3236.19971,N,05139.34628,E,0.059,,280823,,,A*7E
$GPVTG,,T,,M,0.059,N,0.109,K,A*27
$GPGGA,075656.00,3236.19971,N,05139.34628,E,1,08,1.43,1737.7,M,-17.6,M,,*4B
$GPGSA,A,3,27,10,23,08,24,21,02,32,,,,,2.42,1.43,1.95*06
$GPGSV,3,1,11,01,,,34,02,21,315,41,08,42,282,42,10,52,030,39*41
$GPGSV,3,2,11,18,16,120,10,21,30,316,39,23,22,062,37,24,06,044,29*70
$GPGSV,3,3,11,27,49,227,27,28,16,155,20,32,80,160,38*48
$GPGLL,3236.19971,N,05139.34628,E,075656.00,A,A*68
$GPRMC,075657.00,A,3236.19975,N,05139.34625,E,0.023,,280823,,,A*7B
$GPVTG,,T,,M,0.023,N,0.042,K,A*24
$GPGGA,075657.00,3236.19975,N,05139.34625,E,1,08,1.43,1737.8,M,-17.6,M,,*4C
$GPGSA,A,3,27,10,23,08,24,21,02,32,,,,,2.42,1.43,1.95*06
$GPGSV,3,1,11,01,,,34,02,21,315,41,08,42,282,43,10,52,030,39*40
$GPGSV,3,2,11,18,16,120,10,21,30,316,40,23,22,062,37,24,06,044,30*76
$GPGSV,3,3,11,27,49,227,27,28,16,155,21,32,80,160,38*49
$GPGLL,3236.19975,N,05139.34625,E,075657.00,A,A*60
$GPRMC,075658.00,A,3236.19976,N,05139.34623,E,0.061,,280823,,,A*77
$GPVTG,,T,,M,0.061,N,0.113,K,A*27
$GPGGA,075658.00,3236.19976,N,05139.34623,E,1,08,1.43,1737.8,M,-17.6,M,,*46
$GPGSA,A,3,27,10,23,08,24,21,02,32,,,,,2.42,1.43,1.95*06
$GPGSV,3,1,11,01,,,34,02,21,315,42,08,42,282,42,10,52,031,38*42
$GPGSV,3,2,11,18,16,120,33,21,30,316,39,23,22,062,34,24,06,044,30*7A
$GPGSV,3,3,11,27,49,227,26,28,16,155,33,32,80,160,38*4B
$GPGLL,3236.19976,N,05139.34623,E,075658.00,A,A*6A
$GPRMC,075659.00,A,3236.19977,N,05139.34622,E,0.009,,280823,,,A*78
$GPVTG,,T,,M,0.009,N,0.017,K,A*2C
$GPGGA,075659.00,3236.19977,N,05139.34622,E,1,08,1.43,1737.8,M,-17.6,M,,*47
$GPGSA,A,3,27,10,23,08,24,21,02,32,,,,,2.42,1.43,1.95*06
$GPGSV,3,1,11,01,,,34,02,21,315,42,08,42,282,44,10,52,031,39*45
$GPGSV,3,2,11,18,16,120,34,21,30,316,40,23,22,062,37,24,06,044,30*70
$GPGSV,3,3,11,27,49,227,27,28,16,155,34,32,80,160,39*4C
$GPGLL,3236.19977,N,05139.34622,E,075659.00,A,A*6B
$GPRMC,075700.00,A,3236.19979,N,05139.34621,E,0.046,,280823,,,A*73
$GPVTG,,T,,M,0.046,N,0.085,K,A*2C
$GPGGA,075700.00,3236.19979,N,05139.34621,E,1,08,1.43,1737.9,M,-17.6,M,,*46
$GPGSA,A,3,27,10,23,08,24,21,02,32,,,,,2.42,1.43,1.95*06
$GPGSV,3,1,11,01,,,34,02,21,315,44,08,42,282,45,10,52,031,40*4C
$GPGSV,3,2,11,18,16,120,34,21,30,316,41,23,22,062,39,24,06,044,31*7E
$GPGSV,3,3,11,27,49,227,27,28,16,155,33,32,80,160,40*45
$GPGLL,3236.19979,N,05139.34621,E,075700.00,A,A*6B
$GPRMC,075701.00,A,3236.19976,N,05139.34621,E,0.031,,280823,,,A*7D
$GPVTG,,T,,M,0.031,N,0.057,K,A*23
$GPGGA,075701.00,3236.19976,N,05139.34621,E,1,08,1.43,1737.7,M,-17.6,M,,*46
$GPGSA,A,3,27,10,23,08,24,21,02,32,,,,,2.42,1.43,1.95*06
$GPGSV,3,1,11,01,,,33,02,21,315,43,08,42,282,45,10,52,031,40*4C
$GPGSV,3,2,11,18,16,120,33,21,30,316,40,23,22,062,38,24,06,044,31*79
$GPGSV,3,3,11,27,49,227,26,28,16,155,31,32,80,160,39*48
$GPGLL,3236.19976,N,05139.34621,E,075701.00,A,A*65
$GPRMC,075702.00,A,3236.19975,N,05139.34620,E,0.031,,280823,,,A*7C
$GPVTG,,T,,M,0.031,N,0.057,K,A*23
$GPGGA,075702.00,3236.19975,N,05139.34620,E,1,08,1.43,1737.6,M,-17.6,M,,*46
$GPGSA,A,3,27,10,23,08,24,21,02,32,,,,,2.42,1.43,1.95*06
$GPGSV,3,1,11,01,,,32,02,21,315,42,08,42,282,44,10,52,031,39*43
$GPGSV,3,2,11,18,16,120,30,21,30,316,39,23,22,062,37,24,06,044,31*7B
$GPGSV,3,3,11,27,49,227,26,28,16,155,30,32,80,160,38*48
$GPGLL,3236.19975,N,05139.34620,E,075702.00,A,A*64
$GPRMC,075703.00,A,3236.19975,N,05139.34619,E,0.016,,280823,,,A*72
$GPVTG,,T,,M,0.016,N,0.029,K,A*2F
$GPGGA,075703.00,3236.19975,N,05139.34619,E,1,08,1.43,1737.6,M,-17.6,M,,*4D
$GPGSA,A,3,27,10,23,08,24,21,02,32,,,,,2.42,1.43,1.95*06
$GPGSV,3,1,11,01,,,31,02,21,315,42,08,42,282,44,10,52,031,39*40
$GPGSV,3,2,11,18,16,120,30,21,30,316,39,23,22,062,37,24,06,044,31*7B
$GPGSV,3,3,11,27,49,227,26,28,16,155,30,32,80,160,38*48
$GPGLL,3236.19975,N,05139.34619,E,075703.00,A,A*6F
$GPRMC,075704.00,A,3236.19978,N,05139.34620,E,0.121,,280823,,,A*77
$GPVTG,,T,,M,0.121,N,0.224,K,A*25
$GPGGA,075704.00,3236.19978,N,05139.34620,E,1,08,1.43,1737.6,M,-17.6,M,,*4D
$GPGSA,A,3,27,10,23,08,24,21,02,32,,,,,2.42,1.43,1.95*06
$GPGSV,3,1,11,01,,,32,02,21,315,42,08,42,282,43,10,52,031,38*45
$GPGSV,3,2,11,18,16,120,34,21,30,316,39,23,22,062,39,24,06,044,31*71
$GPGSV,3,3,11,27,49,227,26,28,16,155,32,32,80,160,38*4A
$GPGLL,3236.19978,N,05139.34620,E,075704.00,A,A*6F
$GPRMC,075705.00,A,3236.19982,N,05139.34621,E,0.100,,280823,,,A*71
$GPVTG,,T,,M,0.100,N,0.185,K,A*2E
$GPGGA,075705.00,3236.19982,N,05139.34621,E,1,08,1.43,1737.6,M,-17.6,M,,*48
$GPGSA,A,3,27,10,23,08,24,21,02,32,,,,,2.42,1.43,1.95*06
$GPGSV,3,1,11,01,,,33,02,21,315,42,08,42,282,45,10,52,031,39*43
$GPGSV,3,2,11,18,16,120,34,21,30,316,39,23,22,062,41,24,06,044,30*7F
$GPGSV,3,3,11,27,49,227,25,28,16,155,33,32,80,160,37*47
$GPGLL,3236.19982,N,05139.34621,E,075705.00,A,A*6A
$GPRMC,075706.00,A,3236.19984,N,05139.34623,E,0.005,,280823,,,A*72
$GPVTG,,T,,M,0.005,N,0.009,K,A*2F
$GPGGA,075706.00,3236.19984,N,05139.34623,E,1,08,1.43,1737.5,M,-17.6,M,,*4C
$GPGSA,A,3,27,10,23,08,24,21,02,32,,,,,2.41,1.43,1.95*05
$GPGSV,3,1,11,01,,,32,02,21,315,41,08,42,282,44,10,52,031,37*4E
$GPGSV,3,2,11,18,16,120,31,21,30,316,38,23,22,062,39,24,06,044,29*7C
$GPGSV,3,3,11,27,49,227,25,28,16,155,31,32,80,160,38*4A
$GPGLL,3236.19984,N,05139.34623,E,075706.00,A,A*6D
$GPRMC,075707.00,A,3236.19982,N,05139.34624,E,0.091,,280823,,,A*7F
$GPVTG,,T,,M,0.091,N,0.168,K,A*24
$GPGGA,075707.00,3236.19982,N,05139.34624,E,1,08,1.43,1737.4,M,-17.6,M,,*4D
$GPGSA,A,3,27,10,23,08,24,21,02,32,,,,,2.41,1.43,1.95*05
$GPGSV,3,1,11,01,,,32,02,21,315,43,08,42,282,45,10,52,031,40*4D
$GPGSV,3,2,11,18,16,120,32,21,30,316,38,23,22,062,41,24,06,044,30*78
$GPGSV,3,3,11,27,49,227,26,28,16,155,32,32,81,159,39*40
$GPGLL,3236.19982,N,05139.34624,E,075707.00,A,A*6D
$GPRMC,075708.00,A,3236.19977,N,05139.34627,E,0.056,,280823,,,A*72
$GPVTG,,T,,M,0.056,N,0.103,K,A*22
$GPGGA,075708.00,3236.19977,N,05139.34627,E,1,08,1.43,1737.2,M,-17.6,M,,*4D
$GPGSA,A,3,27,10,23,08,24,21,02,32,,,,,2.41,1.43,1.95*05
$GPGSV,3,1,11,01,,,31,02,21,315,42,08,42,282,45,10,52,031,39*41
$GPGSV,3,2,11,18,16,120,32,21,30,316,37,23,22,062,39,24,06,044,29*70
$GPGSV,3,3,11,27,49,227,26,28,16,155,30,32,81,159,39*42
$GPGLL,3236.19977,N,05139.34627,E,075708.00,A,A*6B
$GPRMC,075709.00,A,3236.19972,N,05139.34629,E,0.058,,280823,,,A*76
$GPVTG,,T,,M,0.058,N,0.108,K,A*27
$GPGGA,075709.00,3236.19972,N,05139.34629,E,1,08,1.43,1737.0,M,-17.6,M,,*45
$GPGSA,A,3,27,10,23,08,24,21,02,32,,,,,2.41,1.43,1.95*05
$GPGSV,3,1,11,01,,,32,02,21,315,43,08,42,282,45,10,52,031,39*43
$GPGSV,3,2,11,18,16,120,32,21,30,316,38,23,22,062,39,24,06,044,29*7F
$GPGSV,3,3,11,27,49,227,26,28,16,155,31,32,81,159,40*4D
$GPGLL,3236.19972,N,05139.34629,E,075709.00,A,A*61
$GPRMC,075710.00,A,3236.19970,N,05139.34630,E,0.011,,280823,,,A*79
$GPVTG,,T,,M,0.011,N,0.020,K,A*21
$GPGGA,075710.00,3236.19970,N,05139.34630,E,1,08,1.43,1736.9,M,-17.6,M,,*4F
$GPGSA,A,3,27,10,23,08,24,21,02,32,,,,,2.41,1.43,1.95*05
$GPGSV,3,1,11,01,,,31,02,21,315,42,08,42,282,45,10,52,031,40*4F
$GPGSV,3,2,11,18,16,120,31,21,30,316,38,23,22,062,39,24,06,044,29*7C
$GPGSV,3,3,11,27,49,227,26,28,16,155,31,32,81,159,40*4D
$GPGLL,3236.19970,N,05139.34630,E,075710.00,A,A*63
$GPRMC,075711.00,A,3236.19966,N,05139.34630,E,0.015,,280823,,,A*7B
$GPVTG,,T,,M,0.015,N,0.028,K,A*2D
$GPGGA,075711.00,3236.19966,N,05139.34630,E,1,08,1.43,1736.8,M,-17.6,M,,*48
$GPGSA,A,3,27,10,23,08,24,21,02,32,,,,,2.41,1.43,1.94*04
$GPGSV,3,1,11,01,,,31,02,21,315,42,08,42,282,45,10,52,031,40*4F
$GPGSV,3,2,11,18,16,120,32,21,30,316,39,23,22,062,39,24,06,044,30*76
$GPGSV,3,3,11,27,49,227,26,28,16,155,31,32,81,159,40*4D
$GPGLL,3236.19966,N,05139.34630,E,075711.00,A,A*65
$GPRMC,075712.00,A,3236.19961,N,05139.34630,E,0.024,,280823,,,A*7D
$GPVTG,,T,,M,0.024,N,0.045,K,A*24
$GPGGA,075712.00,3236.19961,N,05139.34630,E,1,08,1.43,1736.6,M,-17.6,M,,*42
$GPGSA,A,3,27,10,23,08,24,21,02,32,,,,,2.41,1.43,1.94*04
$GPGSV,3,1,11,01,,,31,02,21,315,42,08,42,282,45,10,52,031,40*4F
$GPGSV,3,2,11,18,16,120,31,21,30,316,38,23,22,062,40,24,06,044,30*7A
$GPGSV,3,3,11,27,49,227,25,28,16,155,31,32,81,159,40*4E
$GPGLL,3236.19961,N,05139.34630,E,075712.00,A,A*61
$GPRMC,075713.00,A,3236.19956,N,05139.34631,E,0.007,,280823,,,A*78
$GPVTG,,T,,M,0.007,N,0.014,K,A*21
$GPGGA,075713.00,3236.19956,N,05139.34631,E,1,08,1.43,1736.4,M,-17.6,M,,*44
$GPGSA,A,3,27,10,23,08,24,21,02,32,,,,,2.41,1.43,1.94*04
$GPGSV,3,1,11,01,,,31,02,21,315,43,08,42,282,46,10,52,031,41*4C
$GPGSV,3,2,11,18,16,120,31,21,30,316,39,23,22,062,40,24,06,044,31*7A
$GPGSV,3,3,11,27,49,227,24,28,16,155,31,32,81,159,39*41
$GPGLL,3236.19956,N,05139.34631,E,075713.00,A,A*65
$GPRMC,075714.00,A,3236.19951,N,05139.34632,E,0.019,,280823,,,A*74
$GPVTG,,T,,M,0.019,N,0.035,K,A*2D
$GPGGA,075714.00,3236.19951,N,05139.34632,E,1,08,1.43,1736.2,M,-17.6,M,,*41
$GPGSA,A,3,27,10,23,08,24,21,02,32,,,,,2.41,1.43,1.94*04
$GPGSV,3,1,11,01,,,31,02,21,315,44,08,42,282,47,10,52,031,41*4A
$GPGSV,3,2,11,18,16,120,31,21,30,316,41,23,22,062,40,24,06,044,31*75
$GPGSV,3,3,11,27,49,227,23,28,16,155,32,32,81,159,39*45
$GPGLL,3236.19951,N,05139.34632,E,075714.00,A,A*66
$GPRMC,075715.00,A,3236.19948,N,05139.34631,E,0.027,,280823,,,A*73
$GPVTG,,T,,M,0.027,N,0.050,K,A*23
$GPGGA,075715.00,3236.19948,N,05139.34631,E,1,08,1.43,1736.1,M,-17.6,M,,*48
$GPGSA,A,3,27,10,23,08,24,21,02,32,,,,,2.41,1.43,1.94*04
$GPGSV,3,1,11,01,,,31,02,21,315,43,08,42,282,47,10,52,031,41*4D
$GPGSV,3,2,11,18,16,120,32,21,30,316,40,23,22,062,40,24,06,044,31*77
$GPGSV,3,3,11,27,49,226,23,28,16,155,32,32,81,159,39*44
$GPGLL,3236.19948,N,05139.34631,E,075715.00,A,A*6C
$GPRMC,075716.00,A,3236.19946,N,05139.34632,E,0.029,,280823,,,A*73
$GPVTG,,T,,M,0.029,N,0.053,K,A*2E
$GPGGA,075716.00,3236.19946,N,05139.34632,E,1,08,1.43,1736.1,M,-17.6,M,,*46
$GPGSA,A,3,27,10,23,08,24,21,02,32,,,,,2.41,1.43,1.94*04
$GPGSV,3,1,11,01,,,32,02,21,315,44,08,42,282,46,10,52,031,41*48
$GPGSV,3,2,11,18,16,120,32,21,30,316,39,23,22,062,39,24,06,044,30*76
$GPGSV,3,3,11,27,49,226,24,28,16,155,33,32,81,159,39*42
$GPGLL,3236.19946,N,05139.34632,E,075716.00,A,A*62
$GPRMC,075717.00,A,3236.19944,N,05139.34633,E,0.070,,280823,,,A*7D
$GPVTG,,T,,M,0.070,N,0.130,K,A*26
$GPGGA,075717.00,3236.19944,N,05139.34633,E,1,08,1.43,1736.0,M,-17.6,M,,*45
$GPGSA,A,3,27,10,23,08,24,21,02,32,,,,,2.41,1.43,1.94*04
$GPGSV,3,1,11,01,,,32,02,21,315,41,08,42,282,45,10,52,031,40*4F
$GPGSV,3,2,11,18,16,120,32,21,30,316,38,23,22,062,38,24,06,044,31*77
$GPGSV,3,3,11,27,49,226,23,28,16,155,31,32,81,159,37*49
$GPGLL,3236.19944,N,05139.34633,E,075717.00,A,A*60
$GPRMC,075718.00,A,3236.19942,N,05139.34633,E,0.046,,280823,,,A*71
$GPVTG,,T,,M,0.046,N,0.086,K,A*2F
$GPGGA,075718.00,3236.19942,N,05139.34633,E,1,08,1.43,1735.9,M,-17.6,M,,*46
$GPGSA,A,3,27,10,23,08,24,21,02,32,,,,,2.41,1.43,1.94*04
$GPGSV,3,1,11,01,,,32,02,21,315,40,08,42,282,45,10,52,031,40*4E
$GPGSV,3,2,11,18,16,120,32,21,30,316,37,23,22,062,38,24,06,044,30*79
$GPGSV,3,3,11,27,49,226,23,28,16,155,32,32,81,159,37*4A
$GPGLL,3236.19942,N,05139.34633,E,075718.00,A,A*69
$GPRMC,075719.00,A,3236.19939,N,05139.34631,E,0.068,,280823,,,A*72
$GPVTG,,T,,M,0.068,N,0.126,K,A*28
$GPGGA,075719.00,3236.19939,N,05139.34631,E,1,08,1.43,1735.8,M,-17.6,M,,*48
$GPGSA,A,3,27,10,23,08,24,21,02,32,,,,,2.41,1.43,1.94*04
$GPGSV,3,1,12,01,,,35,02,21,315,37,08,42,282,43,10,52,031,40*4C
$GPGSV,3,2,12,18,16,120,37,21,30,316,34,23,22,062,38,24,06,044,30*7C
$GPGSV,3,3,12,27,49,226,22,28,16,155,36,31,00,178,,32,81,159,36*71
$GPGLL,3236.19939,N,05139.34631,E,075719.00,A,A*66
$GPRMC,075720.00,A,3236.19940,N,05139.34632,E,0.062,,280823,,,A*7F
$GPVTG,,T,,M,0.062,N,0.115,K,A*22
$GPGGA,075720.00,3236.19940,N,05139.34632,E,1,08,1.43,1735.8,M,-17.6,M,,*4F
$GPGSA,A,3,27,10,23,08,24,21,02,32,,,,,2.41,1.43,1.94*04
$GPGSV,3,1,12,01,,,36,02,21,315,42,08,42,282,46,10,52,031,39*46
$GPGSV,3,2,12,18,16,120,37,21,30,316,39,23,22,062,38,24,06,044,30*71
$GPGSV,3,3,12,27,49,226,23,28,16,155,36,31,00,178,,32,81,158,37*70
$GPGLL,3236.19940,N,05139.34632,E,075720.00,A,A*61
$GPRMC,075721.00,A,3236.19937,N,05139.34632,E,0.035,,280823,,,A*7C
$GPVTG,,T,,M,0.035,N,0.065,K,A*26
$GPGGA,075721.00,3236.19937,N,05139.34632,E,1,08,1.43,1735.7,M,-17.6,M,,*41
$GPGSA,A,3,27,10,23,08,24,21,02,32,,,,,2.41,1.43,1.94*04
$GPGSV,3,1,12,01,,,38,02,21,315,44,08,42,282,48,10,52,031,41*4F
$GPGSV,3,2,12,18,16,120,39,21,30,316,41,23,22,062,41,24,06,044,33*7D
$GPGSV,3,3,12,27,49,226,23,28,16,155,38,31,00,178,38,32,81,158,40*75
$GPGLL,3236.19937,N,05139.34632,E,075721.00,A,A*60
$GPRMC,075722.00,A,3236.19935,N,05139.34633,E,0.024,,280823,,,A*7C
$GPVTG,,T,,M,0.024,N,0.044,K,A*25
$GPGGA,075722.00,3236.19935,N,05139.34633,E,1,08,2.26,1735.8,M,-17.6,M,,*4E
$GPGSA,A,3,27,10,23,08,24,21,02,32,,,,,3.28,2.26,2.37*00
$GPGSV,3,1,12,01,,,35,02,21,315,39,08,42,282,45,10,52,031,38*4B
$GPGSV,3,2,12,18,16,120,35,21,30,316,36,23,22,062,37,24,06,044,30*73
$GPGSV,3,3,12,27,49,226,21,28,16,155,35,31,00,178,34,32,81,158,38*79
$GPGLL,3236.19935,N,05139.34633,E,075722.00,A,A*60
$GPRMC,075723.00,A,3236.19933,N,05139.34634,E,0.027,,280823,,,A*7F
$GPVTG,,T,,M,0.027,N,0.050,K,A*23
$GPGGA,075723.00,3236.19933,N,05139.34634,E,1,07,2.26,1735.8,M,-17.6,M,,*41
$GPGSA,A,3,10,23,08,24,21,02,32,,,,,,3.28,2.26,2.37*05
$GPGSV,3,1,12,01,,,35,02,21,315,41,08,42,282,44,10,52,031,36*4B
$GPGSV,3,2,12,18,16,120,35,21,30,316,39,23,22,062,37,24,06,044,29*74
$GPGSV,3,3,12,27,49,226,,28,16,155,35,31,00,178,34,32,81,158,37*75
$GPGLL,3236.19933,N,05139.34634,E,075723.00,A,A*60
$GPRMC,075724.00,A,3236.19931,N,05139.34635,E,0.061,,280823,,,A*79
$GPVTG,,T,,M,0.061,N,0.113,K,A*27
$GPGGA,075724.00,3236.19931,N,05139.34635,E,1,08,2.26,1735.8,M,-17.6,M,,*4A
$GPGSA,A,3,27,10,23,08,24,21,02,32,,,,,3.28,2.26,2.37*00
$GPGSV,3,1,12,01,,,36,02,21,315,38,08,42,282,43,10,52,031,39*4E
$GPGSV,3,2,12,18,16,120,36,21,30,316,39,23,22,062,36,24,06,044,30*7E
$GPGSV,3,3,12,27,49,226,23,28,16,155,36,31,00,178,35,32,81,158,39*78
$GPGLL,3236.19931,N,05139.34635,E,075724.00,A,A*64
$GPRMC,075725.00,A,3236.19937,N,05139.34636,E,0.026,,280823,,,A*7E
$GPVTG,,T,,M,0.026,N,0.049,K,A*2A
$GPGGA,075725.00,3236.19937,N,05139.34636,E,1,08,1.42,1735.9,M,-17.6,M,,*4E
$GPGSA,A,3,27,10,23,08,24,21,02,32,,,,,2.41,1.42,1.94*05
$GPGSV,3,1,12,01,,,33,02,21,315,40,08,42,282,42,10,52,031,37*4B
$GPGSV,3,2,12,18,16,120,35,21,30,316,41,23,22,062,36,24,06,044,29*7A
$GPGSV,3,3,12,27,49,226,24,28,16,155,33,31,00,178,33,32,81,158,36*73
$GPGLL,3236.19937,N,05139.34636,E,075725.00,A,A*60
$GPRMC,075726.00,A,3236.19943,N,05139.34638,E,0.061,,280823,,,A*73
$GPVTG,,T,,M,0.061,N,0.112,K,A*26
$GPGGA,075726.00,3236.19943,N,05139.34638,E,1,08,1.42,1736.0,M,-17.6,M,,*4A
$GPGSA,A,3,27,10,23,08,24,21,02,32,,,,,2.41,1.42,1.94*05
$GPGSV,3,1,12,01,,,30,02,21,315,40,08,42,282,42,10,52,031,37*48
$GPGSV,3,2,12,18,16,120,35,21,30,316,43,23,22,062,37,24,06,044,30*71
$GPGSV,3,3,12,27,49,226,22,28,16,155,29,31,00,178,33,32,81,158,38*70
$GPGLL,3236.19943,N,05139.34638,E,075726.00,A,A*6E
$GPRMC,075727.00,A,3236.19950,N,05139.34638,E,0.056,,280823,,,A*74
$GPVTG,,T,,M,0.056,N,0.104,K,A*25
$GPGGA,075727.00,3236.19950,N,05139.34638,E,1,08,1.42,1736.2,M,-17.6,M,,*4B
$GPGSA,A,3,27,10,23,08,24,21,02,32,,,,,2.41,1.42,1.94*05
$GPGSV,3,1,12,01,,,29,02,21,315,41,08,42,282,42,10,52,031,40*41
$GPGSV,3,2,12,18,16,120,30,21,30,316,42,23,22,062,36,24,06,044,30*74
$GPGSV,3,3,12,27,49,226,23,28,16,155,29,31,00,178,28,32,81,158,35*76
$GPGLL,3236.19950,N,05139.34638,E,075727.00,A,A*6D
$GPRMC,075728.00,A,3236.19952,N,05139.34638,E,0.049,,280823,,,A*77
$GPVTG,,T,,M,0.049,N,0.090,K,A*27
$GPGGA,075728.00,3236.19952,N,05139.34638,E,1,08,1.42,1736.2,M,-17.6,M,,*46
$GPGSA,A,3,27,10,23,08,24,21,02,32,,,,,2.41,1.42,1.94*05
$GPGSV,3,1,12,01,,,28,02,21,315,43,08,42,282,43,10,52,031,43*40
$GPGSV,3,2,12,18,16,120,29,21,30,316,43,23,22,062,35,24,06,044,30*7E
$GPGSV,3,3,12,27,49,226,21,28,16,155,29,31,00,178,28,32,81,158,35*74
$GPGLL,3236.19952,N,05139.34638,E,075728.00,A,A*60
$GPRMC,075729.00,A,3236.19948,N,05139.34638,E,0.034,,280823,,,A*77
$GPVTG,,T,,M,0.034,N,0.063,K,A*21
$GPGGA,075729.00,3236.19948,N,05139.34638,E,1,08,1.42,1736.2,M,-17.6,M,,*4C
$GPGSA,A,3,27,10,23,08,24,21,02,32,,,,,2.41,1.42,1.94*05
$GPGSV,3,1,12,01,,,28,02,21,315,40,08,42,282,43,10,52,031,41*41
$GPGSV,3,2,12,18,16,120,28,21,30,316,41,23,22,062,35,24,06,044,29*75
$GPGSV,3,3,12,27,49,226,22,28,16,155,29,31,00,178,29,32,81,158,39*7A
$GPGLL,3236.19948,N,05139.34638,E,075729.00,A,A*6A
$GPRMC,075730.00,A,3236.19950,N,05139.34637,E,0.042,,280823,,,A*78
$GPVTG,,T,,M,0.042,N,0.077,K,A*25
$GPGGA,075730.00,3236.19950,N,05139.34637,E,1,08,1.42,1736.3,M,-17.6,M,,*43
$GPGSA,A,3,27,10,23,08,24,21,02,32,,,,,2.41,1.42,1.94*05
$GPGSV,3,1,12,01,,,32,02,21,315,33,08,42,282,37,10,52,031,33*48
$GPGSV,3,2,12,18,16,120,31,21,30,316,33,23,22,062,32,24,06,044,31*76
$GPGSV,3,3,12,27,49,226,21,28,16,155,29,31,00,178,32,32,81,158,32*78
$GPGLL,3236.19950,N,05139.34637,E,075730.00,A,A*64
$GPRMC,075731.00,A,3236.19952,N,05139.34635,E,0.229,,280823,,,A*76
$GPVTG,,T,,M,0.229,N,0.424,K,A*28
$GPGGA,075731.00,3236.19952,N,05139.34635,E,1,08,1.42,1736.4,M,-17.6,M,,*45
$GPGSA,A,3,27,10,23,08,24,21,02,32,,,,,2.41,1.42,1.94*05
$GPGSV,3,1,12,01,,,29,02,21,315,40,08,42,282,39,10,52,031,34*4F
$GPGSV,3,2,12,18,16,120,31,21,30,316,38,23,22,062,34,24,06,044,28*73
$GPGSV,3,3,12,27,49,226,21,28,16,155,30,31,00,178,29,32,81,158,38*70
$GPGLL,3236.19952,N,05139.34635,E,075731.00,A,A*65
$GPRMC,075732.00,A,3236.19953,N,05139.34635,E,0.027,,280823,,,A*78
$GPVTG,,T,,M,0.027,N,0.050,K,A*23
$GPGGA,075732.00,3236.19953,N,05139.34635,E,1,08,1.42,1736.5,M,-17.6,M,,*46
$GPGSA,A,3,27,10,23,08,24,21,02,32,,,,,2.40,1.42,1.94*04
$GPGSV,3,1,12,01,,,33,02,21,315,33,08,42,282,41,10,52,031,35*4E
$GPGSV,3,2,12,18,16,120,31,21,30,316,33,23,22,062,33,24,06,044,29*7E
$GPGSV,3,3,12,27,49,226,21,28,16,155,31,31,00,178,32,32,81,158,35*76
$GPGLL,3236.19953,N,05139.34635,E,075732.00,A,A*67
$GPRMC,075733.00,A,3236.19946,N,05139.34635,E,0.165,,280823,,,A*7A
$GPVTG,,T,,M,0.165,N,0.306,K,A*24
$GPGGA,075733.00,3236.19946,N,05139.34635,E,1,08,1.42,1736.4,M,-17.6,M,,*42
$GPGSA,A,3,27,10,23,08,24,21,02,32,,,,,2.40,1.42,1.94*04
$GPGSV,3,1,12,01,,,31,02,21,315,34,08,42,282,38,10,52,031,32*42
$GPGSV,3,2,12,18,16,120,30,21,30,316,27,23,22,062,29,24,06,044,27*7F
$GPGSV,3,3,12,27,49,226,20,28,16,155,30,31,00,178,30,32,81,158,34*75
$GPGLL,3236.19946,N,05139.34635,E,075733.00,A,A*62
$GPRMC,075734.00,A,3236.19945,N,05139.34632,E,0.023,,280823,,,A*7A
$GPVTG,,T,,M,0.023,N,0.042,K,A*24
$GPGGA,075734.00,3236.19945,N,05139.34632,E,1,08,1.42,1736.4,M,-17.6,M,,*41
$GPGSA,A,3,27,10,23,08,24,21,02,32,,,,,2.40,1.42,1.94*04
$GPGSV,3,1,12,01,,,31,02,21,315,38,08,42,282,40,10,52,031,33*40
$GPGSV,3,2,12,18,16,120,31,21,30,316,33,23,22,062,31,24,06,044,27*72
$GPGSV,3,3,12,27,49,226,19,28,16,155,30,31,00,178,30,32,81,158,34*7F
$GPGLL,3236.19945,N,05139.34632,E,075734.00,A,A*61
$GPRMC,075735.00,A,3236.19959,N,05139.34628,E,0.432,,280823,,,A*79
$GPVTG,,T,,M,0.432,N,0.800,K,A*2E
$GPGGA,075735.00,3236.19959,N,05139.34628,E,1,08,1.42,1736.7,M,-17.6,M,,*45
$GPGSA,A,3,27,10,23,08,24,21,02,32,,,,,2.40,1.42,1.94*04
$GPGSV,3,1,12,01,,,30,02,21,315,32,08,42,282,38,10,52,031,31*46
$GPGSV,3,2,12,18,16,120,30,21,30,316,33,23,22,062,28,24,06,044,26*7A
$GPGSV,3,3,12,27,49,226,17,28,16,155,29,31,00,178,29,32,81,158,31*74
$GPGLL,3236.19959,N,05139.34628,E,075735.00,A,A*66

