A*74
$GPVTG,,T,,M,0.832,N,1.540,K,A*2A
$GPGGA,083506.00,3542.04972,N,05123.47811,E,1,08,1.45,1264.7,M,-17.6,M,,*41
$GPGSA,A,3,08,27,32,10,23,18,03,28,,,,,1.93,1.45,1.28*0E
$GPGSV,4,1,13,01,20,315,28,02,39,315,31,03,05,229,25,08,73,304,30*7D
$GPGSV,4,2,13,10,42,044,26,18,14,049,21,21,00,091,39,23,12,077,17*79
$GPGSV,4,3,13,24,00,032,,27,66,147,28,28,04,327,25,31,09,170,*74
$GPGSV,4,4,13,32,42,112,27*4B
$GPGLL,3542.04972,N,05123.47811,E,083506.00,A,A*67
$GPRMC,083507.00,A,3542.05008,N,05123.47694,E,1.064,,280823,,,A*79
$GPVTG,,T,,M,1.064,N,1.970,K,A*2F
$GPGGA,083507.00,3542.05008,N,05123.47694,E,1,10,1.45,1265.0,M,-17.6,M,,*49
$GPGSA,A,3,08,27,32,02,10,23,18,03,28,21,,,1.94,1.45,1.28*08
$GPGSV,4,1,13,01,20,315,25,02,39,315,23,03,05,229,25,08,73,304,22*70
$GPGSV,4,2,13,10,42,044,23,18,14,049,23,21,00,091,23,23,12,077,14*76
$GPGSV,4,3,13,24,00,032,,27,66,147,25,28,04,327,20,31,09,170,*7C
$GPGSV,4,4,13,32,42,112,27*4B
$GPGLL,3542.05008,N,05123.47694,E,083507.00,A,A*60
$GPRMC,083508.00,A,3542.05021,N,05123.47659,E,4.042,,280823,,,A*7D
$GPVTG,,T,,M,4.042,N,7.485,K,A*2F
$GPGGA,083508.00,3542.05021,N,05123.47659,E,1,09,1.55,1269.4,M,-17.6,M,,*4D
$GPGSA,A,3,08,27,32,02,10,18,03,28,21,,,,2.01,1.55,1.28*07
$GPGSV,4,1,13,01,20,315,23,02,39,315,19,03,05,229,23,08,73,304,23*78
$GPGSV,4,2,13,10,42,044,25,18,14,049,22,21,00,091,22,23,12,077,*75
$GPGSV,4,3,13,24,00,032,,27,66,147,24,28,04,327,31,31,09,170,*7D
$GPGSV,4,4,13,32,42,112,25*49
$GPGLL,3542.05021,N,05123.47659,E,083508.00,A,A*65
$GPRMC,083509.00,V,,,,,,,280823,,,N*79
$GPVTG,,,,,,,,,N*30
$GPGGA,083509.00,,,,,0,07,99.99,,,,,,*66
$GPGSA,A,1,08,27,32,10,23,18,03,,,,,,99.99,99.99,1.00*07
$GPGSV,4,1,13,01,20,315,48,02,39,315,,03,05,229,48,08,73,304,49*7C
$GPGSV,4,2,13,10,42,044,30,18,14,049,48,21,00,091,47,23,12,077,30*7D
$GPGSV,4,3,13,24,00,032,,27,66,147,49,28,04,327,,31,09,170,*74
$GPGSV,4,4,13,32,42,112,49*43
$GPGLL,,,,,083509.00,V,N*4D
$GPRMC,083510.00,V,,,,,,,280823,,,N*71
$GPVTG,,,,,,,,,N*30
$GPGGA,083510.00,,,,,0,08,1.93,,,,,,*5A
$GPGSA,A,1,08,27,32,10,31,23,18,03,,,,,2.17,1.93,1.00*0A
$GPGSV,4,1,13,01,20,315,45,02,39,315,28,03,05,229,45,08,73,304,47*78
$GPGSV,4,2,13,10,42,044,33,18,14,049,45,21,00,091,45,23,12,077,18*7B
$GPGSV,4,3,13,24,00,032,,27,66,147,47,28,04,327,44,31,09,170,20*78
$GPGSV,4,4,13,32,42,112,46*4C
$GPGLL,,,,,083510.00,V,N*45
$GPRMC,083511.00,V,,,,,,,280823,,,N*70
$GPVTG,,,,,,,,,N*30
$GPGGA,083511.00,,,,,0,06,1.93,,,,,,*55
$GPGSA,A,1,08,27,32,31,18,03,,,,,,,2.17,1.93,1.00*0A
$GPGSV,4,1,13,01,20,315,46,02,39,315,,03,05,229,45,08,73,304,47*71
$GPGSV,4,2,13,10,42,044,40,18,14,049,46,21,00,091,45,23,12,077,*75
$GPGSV,4,3,13,24,00,032,,27,66,147,47,28,04,327,45,31,09,170,17*7D
$GPGSV,4,4,13,32,42,112,47*4D
$GPGLL,,,,,083511.00,V,N*44
$GPRMC,083512.00,V,,,,,,,280823,,,N*73
$GPVTG,,,,,,,,,N*30
$GPGGA,083512.00,,,,,0,06,3.18,,,,,,*57
$GPGSA,A,1,08,27,32,10,18,03,,,,,,,5.64,3.18,4.66*0E
$GPGSV,4,1,13,01,20,315,46,02,39,315,,03,05,229,46,08,73,304,47*72
$GPGSV,4,2,13,10,42,044,47,18,14,049,46,21,00,091,46,23,12,077,*71
$GPGSV,4,3,13,24,00,032,,27,66,147,47,28,04,327,45,31,09,170,*7B
$GPGSV,4,4,13,32,42,112,47*4D
$GPGLL,,,,,083512.00,V,N*47
$GPRMC,083513.00,V,,,,,,,280823,,,N*72
$GPVTG,,,,,,,,,N*30
$GPGGA,083513.00,,,,,0,06,3.18,,,,,,*56
$GPGSA,A,1,08,27,32,10,18,03,,,,,,,5.64,3.18,4.66*0E
$GPGSV,4,1,13,01,20,315,46,02,39,315,38,03,05,229,45,08,73,304,47*7A
$GPGSV,4,2,13,10,42,044,47,18,14,049,46,21,00,091,46,23,12,077,*71
$GPGSV,4,3,13,24,00,032,,27,66,147,47,28,04,327,45,31,09,170,*7B
$GPGSV,4,4,13,32,42,112,47*4D
$GPGLL,,,,,083513.00,V,N*46
$GPRMC,083514.00,V,,,,,,,280823,,,N*75
$GPVTG,,,,,,,,,N*30
$GPGGA,083514.00,,,,,0,08,3.18,,,,,,*5F
$GPGSA,A,1,08,27,32,02,10,23,18,03,,,,,5.64,3.18,4.66*0D
$GPGSV,4,1,13,01,20,315,46,02,39,315,28,03,05,229,46,08,73,304,47*78
$GPGSV,4,2,13,10,42,044,47,18,14,049,46,21,00,091,45,23,12,077,28*78
$GPGSV,4,3,13,24,00,032,,27,66,147,47,28,04,327,46,31,09,170,*78
$GPGSV,4,4,13,32,42,112,47*4D
$GPGLL,,,,,083514.00,V,N*41
$GPRMC,083515.00,A,3542.06597,N,05123.49695,E,2.414,98.28,280823,,,A*50
$GPVTG,98.28,T,,M,2.414,N,4.470,K,A*02
$GPGGA,083515.00,3542.06597,N,05123.49695,E,1,07,3.18,1340.3,M,-17.6,M,,*4C
$GPGSA,A,3,08,27,32,10,23,18,03,,,,,,5.64,3.18,4.65*0E
$GPGSV,4,1,13,01,20,315,46,02,39,315,,03,05,229,45,08,73,304,47*71
$GPGSV,4,2,13,10,42,044,46,18,14,049,46,21,00,091,45,23,12,077,26*77
$GPGSV,4,3,13,24,00,032,,27,66,147,46,28,04,327,45,31,09,170,*7A
$GPGSV,4,4,13,32,42,112,46*4C
$GPGLL,3542.06597,N,05123.49695,E,083515.00,A,A*6C
$GPRMC,083516.00,A,3542.06512,N,05123.49665,E,0.918,122.21,280823,,,A*6B
$GPVTG,122.21,T,,M,0.918,N,1.700,K,A*39
$GPGGA,083516.00,3542.06512,N,05123.49665,E,1,06,3.18,1344.2,M,-17.6,M,,*49
$GPGSA,A,3,08,27,32,10,18,03,,,,,,,5.64,3.18,4.65*0F
$GPGSV,4,1,13,01,20,315,47,02,39,315,,03,05,229,46,08,73,304,49*7D
$GPGSV,4,2,13,10,42,044,48,18,14,049,47,21,00,091,46,23,12,077,*7F
$GPGSV,4,3,13,24,00,032,,27,66,147,48,28,04,327,46,31,09,170,*77
$GPGSV,4,4,13,32,42,112,48*42
$GPGLL,3542.06512,N,05123.49665,E,083516.00,A,A*6D
$GPRMC,083517.00,A,3542.06444,N,05123.49632,E,0.247,,280823,,,A*77
$GPVTG,,T,,M,0.247,N,0.457,K,A*24
$GPGGA,083517.00,3542.06444,N,05123.49632,E,1,06,3.18,1347.7,M,-17.6,M,,*4E
$GPGSA,A,3,08,27,32,10,18,03,,,,,,,5.64,3.18,4.65*0F
$GPGSV,4,1,13,01,20,315,46,02,39,315,35,03,05,229,45,08,73,304,47*77
$GPGSV,4,2,13,10,42,044,46,18,14,049,46,21,00,091,45,23,12,077,*73
$GPGSV,4,3,13,24,00,032,,27,66,147,47,28,04,327,45,31,09,170,*7B
$GPGSV,4,4,13,32,42,112,47*4D
$GPGLL,3542.06444,N,05123.49632,E,083517.00,A,A*6C
$GPRMC,083518.00,A,3542.06414,N,05123.49598,E,0.165,,280823,,,A*7D
$GPVTG,,T,,M,0.165,N,0.305,K,A*27
$GPGGA,083518.00,3542.06414,N,05123.49598,E,1,07,3.18,1350.2,M,-17.6,M,,*45
$GPGSA,A,3,08,27,32,10,23,18,03,,,,,,5.64,3.18,4.65*0E
$GPGSV,4,1,13,01,20,315,46,02,39,315,36,03,05,229,45,08,73,304,47*74
$GPGSV,4,2,13,10,42,044,46,18,14,049,45,21,00,091,45,23,12,077,27*75
$GPGSV,4,3,13,24,00,032,,27,66,147,46,28,04,327,45,31,09,170,*7A
$GPGSV,4,4,13,32,42,112,46*4C
$GPGLL,3542.06414,N,05123.49598,E,083518.00,A,A*65
$GPRMC,083519.00,A,3542.06402,N,05123.49585,E,0.206,,280823,,,A*71
$GPVTG,,T,,M,0.206,N,0.382,K,A*2E
$GPGGA,083519.00,3542.06402,N,05123.49585,E,1,06,3.18,1351.8,M,-17.6,M,,*45
$GPGSA,A,3,08,27,32,10,18,03,,,,,,,5.64,3.18,4.65*0F
$GPGSV,4,1,13,01,20,315,47,02,39,315,,03,05,229,46,08,73,304,48*7C
$GPGSV,4,2,13,10,42,044,48,18,14,049,46,21,00,091,47,23,12,077,*7F
$GPGSV,4,3,13,24,00,032,,27,66,147,48,28,04,327,46,31,09,170,*77
$GPGSV,4,4,13,32,42,112,47*4D
$GPGLL,3542.06402,N,05123.49585,E,083519.00,A,A*6F
$GPRMC,083520.00,A,3542.06397,N,05123.49559,E,0.164,,280823,,,A*76
$GPVTG,,T,,M,0.164,N,0.304,K,A*27
$GPGGA,083520.00,3542.06397,N,05123.49559,E,1,06,3.18,1353.3,M,-17.6,M,,*4C
$GPGSA,A,3,08,27,32,10,18,03,,,,,,,5.64,3.18,4.65*0F
$GPGSV,4,1,13,01,20,315,43,02,39,315,34,03,05,229,43,08,73,304,45*77
$GPGSV,4,2,13,10,42,044,44,18,14,049,44,21,00,091,43,23,12,077,*75
$GPGSV,4,3,13,24,00,032,,27,66,147,44,28,04,327,43,31,09,170,*7E
$GPGSV,4,4,13,32,42,112,44*4E
$GPGLL,3542.06397,N,05123.49559,E,083520.00,A,A*6F
$GPRMC,083521.00,A,3542.06396,N,05123.49528,E,0.048,,280823,,,A*7F
$GPVTG,,T,,M,0.048,N,0.089,K,A*2E
$GPGGA,083521.00,3542.06396,N,05123.49528,E,1,07,3.18,1354.3,M,-17.6,M,,*4C
$GPGSA,A,3,08,27,32,02,10,18,03,,,,,,5.64,3.18,4.65*0D
$GPGSV,4,1,13,01,20,315,47,02,39,315,29,03,05,229,46,08,73,304,48*77
$GPGSV,4,2,13,10,42,044,47,18,14,049,46,21,00,091,46,23,12,077,*71
$GPGSV,4,3,13,24,00,032,,27,66,147,48,28,04,327,46,31,09,170,*77
$GPGSV,4,4,13,32,42,112,48*42
$GPGLL,3542.06396,N,05123.49528,E,083521.00,A,A*69
$GPRMC,083522.00,A,3542.06399,N,05123.49521,E,0.074,,280823,,,A*75
$GPVTG,,T,,M,0.074,N,0.137,K,A*25
$GPGGA,083522.00,3542.06399,N,05123.49521,E,1,06,3.18,1355.2,M,-17.6,M,,*48
$GPGSA,A,3,08,27,32,10,18,03,,,,,,,5.64,3.18,4.65*0F
$GPGSV,4,1,13,01,20,315,47,02,39,315,,03,05,229,45,08,73,304,48*7F
$GPGSV,4,2,13,10,42,044,47,18,14,049,46,21,00,091,46,23,12,077,*71
$GPGSV,4,3,13,24,00,032,,27,66,147,47,28,04,327,46,31,09,170,*78
$GPGSV,4,4,13,32,42,112,47*4D
$GPGLL,3542.06399,N,05123.49521,E,083522.00,A,A*6C
$GPRMC,083523.00,A,3542.06406,N,05123.49514,E,0.041,,280823,,,A*75
$GPVTG,,T,,M,0.041,N,0.077,K,A*26
$GPGGA,083523.00,3542.06406,N,05123.49514,E,1,06,3.18,1355.9,M,-17.6,M,,*45
$GPGSA,A,3,08,27,32,10,18,03,,,,,,,5.64,3.18,4.65*0F
$GPGSV,4,1,13,01,20,315,46,02,39,315,39,03,05,229,46,08,73,304,48*77
$GPGSV,4,2,13,10,42,044,47,18,14,049,46,21,00,091,45,23,12,077,*72
$GPGSV,4,3,13,24,00,032,,27,66,147,47,28,04,327,45,31,09,170,*7B
$GPGSV,4,4,13,32,42,112,47*4D
$GPGLL,3542.06406,N,05123.49514,E,083523.00,A,A*6A
$GPRMC,083524.00,A,3542.06408,N,05123.49484,E,0.184,,280823,,,A*7C
$GPVTG,,T,,M,0.184,N,0.341,K,A*28
$GPGGA,083524.00,3542.06408,N,05123.49484,E,1,07,3.18,1356.7,M,-17.6,M,,*48
$GPGSA,A,3,08,27,32,10,23,18,03,,,,,,5.64,3.18,4.65*0E
$GPGSV,4,1,13,01,20,315,42,02,39,315,29,03,05,229,42,08,73,304,43*7D
$GPGSV,4,2,13,10,42,044,43,18,14,049,42,21,00,091,41,23,12,077,25*71
$GPGSV,4,3,13,24,00,032,,27,66,147,43,28,04,327,41,31,09,170,28*71
$GPGSV,4,4,13,32,42,112,43*49
$GPGLL,3542.06408,N,05123.49484,E,083524.00,A,A*6B
$GPRMC,083525.00,A,3542.06410,N,05123.49440,E,0.011,,280823,,,A*71
$GPVTG,,T,,M,0.011,N,0.021,K,A*20
$GPGGA,083525.00,3542.06410,N,05123.49440,E,1,06,3.18,1357.4,M,-17.6,M,,*4B
$GPGSA,A,3,08,27,32,10,18,03,,,,,,,5.64,3.18,4.65*0F
$GPGSV,4,1,13,01,20,315,45,02,39,315,,03,05,229,44,08,73,304,46*72
$GPGSV,4,2,13,10,42,044,46,18,14,049,45,21,00,091,45,23,12,077,*70
$GPGSV,4,3,13,24,00,032,,27,66,147,46,28,04,327,45,31,09,170,*7A
$GPGSV,4,4,13,32,42,112,45*4F
$GPGLL,3542.06410,N,05123.49440,E,083525.00,A,A*6B
$GPRMC,083526.00,A,3542.06414,N,05123.49405,E,0.013,,280823,,,A*75
$GPVTG,,T,,M,0.013,N,0.025,K,A*26
$GPGGA,083526.00,3542.06414,N,05123.49405,E,1,06,3.18,1357.9,M,-17.6,M,,*40
$GPGSA,A,3,08,27,32,10,18,03,,,,,,,5.63,3.18,4.65*08
$GPGSV,4,1,13,01,20,315,47,02,39,315,38,03,05,229,46,08,73,304,48*77
$GPGSV,4,2,13,10,42,044,48,18,14,049,47,21,00,091,46,23,12,077,*7F
$GPGSV,4,3,13,24,00,032,,27,66,147,48,28,04,327,46,31,09,170,*77
$GPGSV,4,4,13,32,42,112,47*4D
$GPGLL,3542.06414,N,05123.49405,E,083526.00,A,A*6D
$GPRMC,083527.00,A,3542.06418,N,05123.49372,E,0.009,,280823,,,A*74
$GPVTG,,T,,M,0.009,N,0.018,K,A*23
$GPGGA,083527.00,3542.06418,N,05123.49372,E,1,06,3.18,1358.1,M,-17.6,M,,*4D
$GPGSA,A,3,08,27,32,10,18,03,,,,,,,5.63,3.18,4.65*08
$GPGSV,4,1,13,01,20,315,46,02,39,315,,03,05,229,45,08,73,304,47*71
$GPGSV,4,2,13,10,42,044,47,18,14,049,46,21,00,091,46,23,12,077,*71
$GPGSV,4,3,13,24,00,032,,27,66,147,47,28,04,327,46,31,09,170,*78
$GPGSV,4,4,13,32,42,112,47*4D
$GPGLL,3542.06418,N,05123.49372,E,083527.00,A,A*67
$GPRMC,083528.00,A,3542.06422,N,05123.49353,E,0.166,,280823,,,A*79
$GPVTG,,T,,M,0.166,N,0.308,K,A*29
$GPGGA,083528.00,3542.06422,N,05123.49353,E,1,06,3.18,1358.5,M,-17.6,M,,*4C
$GPGSA,A,3,08,27,32,10,18,03,,,,,,,5.63,3.18,4.65*08
$GPGSV,4,1,13,01,20,315,45,02,39,315,,03,05,229,44,08,73,304,46*72
$GPGSV,4,2,13,10,42,044,46,18,14,049,45,21,00,091,44,23,12,077,*71
$GPGSV,4,3,13,24,00,032,,27,66,147,46,28,04,327,45,31,09,170,*7A
$GPGSV,4,4,13,32,42,112,46*4C
$GPGLL,3542.06422,N,05123.49353,E,083528.00,A,A*62
$GPRMC,083529.00,A,3542.06428,N,05123.49333,E,0.059,,280823,,,A*79
$GPVTG,,T,,M,0.059,N,0.109,K,A*27
$GPGGA,083529.00,3542.06428,N,05123.49333,E,1,06,3.18,1358.8,M,-17.6,M,,*4C
$GPGSA,A,3,08,27,32,10,18,03,,,,,,,5.63,3.18,4.65*08
$GPGSV,4,1,13,01,20,315,47,02,39,315,,03,05,229,46,08,73,304,48*7C
$GPGSV,4,2,13,10,42,044,47,18,14,049,46,21,00,091,45,23,12,077,*72
$GPGSV,4,3,13,24,00,032,,27,66,147,48,28,04,327,46,31,09,170,*77
$GPGSV,4,4,13,32,42,112,47*4D
$GPGLL,3542.06428,N,05123.49333,E,083529.00,A,A*6F
$GPRMC,083530.00,A,3542.06431,N,05123.49312,E,0.099,,280823,,,A*76
$GPVTG,,T,,M,0.099,N,0.183,K,A*29
$GPGGA,083530.00,3542.06431,N,05123.49312,E,1,06,3.18,1359.0,M,-17.6,M,,*46
$GPGSA,A,3,08,27,32,10,18,03,,,,,,,5.63,3.18,4.65*08
$GPGSV,4,1,13,01,20,315,46,02,39,315,,03,05,229,45,08,73,304,47*71
$GPGSV,4,2,13,10,42,044,47,18,14,049,46,21,00,091,46,23,12,077,*71
$GPGSV,4,3,13,24,00,032,,27,66,147,47,28,04,327,44,31,09,170,*7A
$GPGSV,4,4,13,32,42,112,46*4C
$GPGLL,3542.06431,N,05123.49312,E,083530.00,A,A*6C
$GPRMC,083531.00,A,3542.06429,N,05123.49280,E,0.012,,280823,,,A*77
$GPVTG,,T,,M,0.012,N,0.023,K,A*21
$GPGGA,083531.00,3542.06429,N,05123.49280,E,1,06,3.18,1358.9,M,-17.6,M,,*4C
$GPGSA,A,3,08,27,32,10,18,03,,,,,,,5.63,3.18,4.65*08
$GPGSV,4,1,13,01,20,315,45,02,39,315,,03,05,229,44,08,73,304,46*72
$GPGSV,4,2,13,10,42,044,46,18,14,049,45,21,00,091,44,23,12,077,*71
$GPGSV,4,3,13,24,00,032,,27,66,147,46,28,04,327,44,31,09,170,*7B
$GPGSV,4,4,13,32,42,112,45*4F
$GPGLL,3542.06429,N,05123.49280,E,083531.00,A,A*6E
$GPRMC,083532.00,A,3542.06426,N,05123.49247,E,0.057,,280823,,,A*71
$GPVTG,,T,,M,0.057,N,0.105,K,A*25
$GPGGA,083532.00,3542.06426,N,05123.49247,E,1,06,3.18,1358.7,M,-17.6,M,,*45
$GPGSA,A,3,08,27,32,10,18,03,,,,,,,5.63,3.18,4.65*08
$GPGSV,4,1,13,01,20,315,43,02,39,315,,03,05,229,41,08,73,304,44*73
$GPGSV,4,2,13,10,42,044,43,18,14,049,42,21,00,091,42,23,12,077,*75
$GPGSV,4,3,13,24,00,032,,27,66,147,44,28,04,327,42,31,09,170,*7F
$GPGSV,4,4,13,32,42,112,44*4E
$GPGLL,3542.06426,N,05123.49247,E,083532.00,A,A*69
$GPRMC,083533.00,A,3542.06423,N,05123.49227,E,0.036,,280823,,,A*74
$GPVTG,,T,,M,0.036,N,0.067,K,A*27
$GPGGA,083533.00,3542.06423,N,05123.49227,E,1,06,3.18,1358.6,M,-17.6,M,,*46
$GPGSA,A,3,08,27,32,10,18,03,,,,,,,5.63,3.18,4.65*08
$GPGSV,4,1,13,01,20,315,47,02,39,315,,03,05,229,47,08,73,304,48*7D
$GPGSV,4,2,13,10,42,044,48,18,14,049,46,21,00,091,47,23,12,077,*7F
$GPGSV,4,3,13,24,00,032,,27,66,147,48,28,04,327,46,31,09,170,*77
$GPGSV,4,4,13,32,42,112,48*42
$GPGLL,3542.06423,N,05123.49227,E,083533.00,A,A*6B
$GPRMC,083534.00,A,3542.06421,N,05123.49207,E,0.063,,280823,,,A*73
$GPVTG,,T,,M,0.063,N,0.117,K,A*21
$GPGGA,083534.00,3542.06421,N,05123.49207,E,1,06,3.18,1358.5,M,-17.6,M,,*42
$GPGSA,A,3,08,27,32,10,18,03,,,,,,,5.63,3.18,4.65*08
$GPGSV,4,1,13,01,20,315,45,02,39,315,,03,05,229,44,08,73,304,47*73
$GPGSV,4,2,13,10,42,044,46,18,14,049,45,21,00,091,45,23,12,077,*70
$GPGSV,4,3,13,24,00,032,,27,66,147,47,28,04,327,44,31,09,170,*7A
$GPGSV,4,4,13,32,42,112,46*4C
$GPGLL,3542.06421,N,05123.49207,E,083534.00,A,A*6C
$GPRMC,083535.00,A,3542.06421,N,05123.49191,E,0.007,,280823,,,A*7C
$GPVTG,,T,,M,0.007,N,0.013,K,A*26
$GPGGA,083535.00,3542.06421,N,05123.49191,E,1,06,3.18,1358.5,M,-17.6,M,,*4F
$GPGSA,A,3,08,27,32,10,18,03,,,,,,,5.63,3.18,4.65*08
$GPGSV,4,1,13,01,20,315,45,02,39,315,,03,05,229,45,08,73,304,45*70
$GPGSV,4,2,13,10,42,044,46,18,14,049,45,21,00,091,45,23,12,077,*70
$GPGSV,4,3,13,24,00,032,,27,66,147,46,28,04,327,45,31,09,170,*7A
$GPGSV,4,4,13,32,42,112,47*4D
$GPGLL,3542.06421,N,05123.49191,E,083535.00,A,A*61
$GPRMC,083536.00,A,3542.06421,N,05123.49176,E,0.047,,280823,,,A*72
$GPVTG,,T,,M,0.047,N,0.087,K,A*2F
$GPGGA,083536.00,3542.06421,N,05123.49176,E,1,06,3.18,1358.5,M,-17.6,M,,*45
$GPGSA,A,3,08,27,32,10,18,03,,,,,,,5.63,3.18,4.65*08
$GPGSV,4,1,14,01,20,315,45,02,39,315,,03,05,229,45,08,73,304,46*74
$GPGSV,4,2,14,10,42,044,46,18,14,049,45,21,00,091,45,23,12,077,*77
$GPGSV,4,3,14,24,00,032,,27,66,147,46,28,04,327,44,31,09,170,*7C
$GPGSV,4,4,14,32,42,112,46,39,40,220,30*76
$GPGLL,3542.06421,N,05123.49176,E,083536.00,A,A*6B
$GPRMC,083537.00,A,3542.06420,N,05123.49160,E,0.027,,280823,,,A*73
$GPVTG,,T,,M,0.027,N,0.049,K,A*2B
$GPGGA,083537.00,3542.06420,N,05123.49160,E,1,06,3.18,1358.4,M,-17.6,M,,*43
$GPGSA,A,3,08,27,32,10,18,03,,,,,,,5.63,3.18,4.65*08
$GPGSV,4,1,14,01,20,315,43,02,39,315,,03,05,229,42,08,73,304,43*70
$GPGSV,4,2,14,10,42,044,44,18,14,049,43,21,00,091,42,23,12,077,*74
$GPGSV,4,3,14,24,00,032,,27,66,147,44,28,04,327,43,31,09,170,*79
$GPGSV,4,4,14,32,42,112,44,39,40,220,27*72
$GPGLL,3542.06420,N,05123.49160,E,083537.00,A,A*6C
$GPRMC,083538.00,A,3542.06419,N,05123.49146,E,0.012,,280823,,,A*74
$GPVTG,,T,,M,0.012,N,0.022,K,A*20
$GPGGA,083538.00,3542.06419,N,05123.49146,E,1,06,3.18,1358.4,M,-17.6,M,,*42
$GPGSA,A,3,08,27,32,10,18,03,,,,,,,5.63,3.18,4.65*08
$GPGSV,4,1,13,01,20,315,46,02,39,315,,03,05,229,46,08,73,304,48*7D
$GPGSV,4,2,13,10,42,044,47,18,14,049,46,21,00,091,46,23,12,077,*71
$GPGSV,4,3,13,24,00,032,,27,66,147,47,28,04,327,45,31,09,170,*7B
$GPGSV,4,4,13,32,42,112,47*4D
$GPGLL,3542.06419,N,05123.49146,E,083538.00,A,A*6D
$GPRMC,083539.00,A,3542.06419,N,05123.49128,E,0.022,,280823,,,A*7E
$GPVTG,,T,,M,0.022,N,0.041,K,A*26
$GPGGA,083539.00,3542.06419,N,05123.49128,E,1,06,3.18,1358.3,M,-17.6,M,,*4C
$GPGSA,A,3,08,27,32,10,18,03,,,,,,,5.63,3.18,4.65*08
$GPGSV,4,1,13,01,20,315,38,02,39,315,,03,05,229,39,08,73,304,38*7B
$GPGSV,4,2,13,10,42,044,39,18,14,049,38,21,00,091,38,23,12,077,*78
$GPGSV,4,3,13,24,00,032,,27,66,147,40,28,04,327,38,31,09,170,*76
$GPGSV,4,4,13,32,42,112,39*44
$GPGLL,3542.06419,N,05123.49128,E,083539.00,A,A*64
$GPRMC,083540.00,A,3542.06422,N,05123.49106,E,0.206,,280823,,,A*70
$GPVTG,,T,,M,0.206,N,0.382,K,A*2E
$GPGGA,083540.00,3542.06422,N,05123.49106,E,1,06,3.18,1358.4,M,-17.6,M,,*41
$GPGSA,A,3,08,27,32,10,18,03,,,,,,,5.63,3.18,4.65*08
$GPGSV,4,1,13,01,20,315,44,02,39,315,,03,05,229,43,08,73,304,45*77
$GPGSV,4,2,13,10,42,044,44,18,14,049,44,21,00,091,44,23,12,077,*72
$GPGSV,4,3,13,24,00,032,,27,66,147,45,28,04,327,43,31,09,170,*7F
$GPGSV,4,4,13,32,42,112,44*4E
$GPGLL,3542.06422,N,05123.49106,E,083540.00,A,A*6E
$GPRMC,083541.00,A,3542.06425,N,05123.49098,E,0.316,,280823,,,A*70
$GPVTG,,T,,M,0.316,N,0.586,K,A*2C
$GPGGA,083541.00,3542.06425,N,05123.49098,E,1,08,3.18,1358.6,M,-17.6,M,,*4D
$GPGSA,A,3,08,27,32,10,31,23,18,03,,,,,5.63,3.18,4.65*0B
$GPGSV,4,1,13,01,20,315,47,02,39,315,,03,05,229,47,08,73,304,48*7D
$GPGSV,4,2,13,10,42,044,48,18,14,049,47,21,00,091,42,23,12,077,19*73
$GPGSV,4,3,13,24,00,032,,27,66,147,48,28,04,327,46,31,09,170,16*70
$GPGSV,4,4,13,32,42,112,48*42
$GPGLL,3542.06425,N,05123.49098,E,083541.00,A,A*6E
$GPRMC,083542.00,A,3542.06425,N,05123.49092,E,0.118,,280823,,,A*75
$GPVTG,,T,,M,0.118,N,0.219,K,A*21
$GPGGA,083542.00,3542.06425,N,05123.49092,E,1,06,3.18,1358.6,M,-17.6,M,,*4A
$GPGSA,A,3,08,27,32,10,18,03,,,,,,,5.63,3.18,4.64*09
$GPGSV,4,1,13,01,20,315,48,02,39,315,,03,05,229,47,08,73,304,49*73
$GPGSV,4,2,13,10,42,044,49,18,14,049,48,21,00,091,47,23,12,077,*70
$GPGSV,4,3,13,24,00,032,,27,66,147,49,28,04,327,47,31,09,170,*77
$GPGSV,4,4,13,32,42,112,49*43
$GPGLL,3542.06425,N,05123.49092,E,083542.00,A,A*67
$GPRMC,083543.00,A,3542.06427,N,05123.49082,E,0.235,,280823,,,A*7B
$GPVTG,,T,,M,0.235,N,0.435,K,A*25
$GPGGA,083543.00,3542.06427,N,05123.49082,E,1,06,3.18,1358.6,M,-17.6,M,,*48
$GPGSA,A,3,08,27,32,10,18,03,,,,,,,5.63,3.18,4.64*09
$GPGSV,4,1,13,01,20,315,43,02,39,315,,03,05,229,42,08,73,304,44*70
$GPGSV,4,2,13,10,42,044,43,18,14,049,42,21,00,091,44,23,12,077,*73
$GPGSV,4,3,13,24,00,032,,27,66,147,43,28,04,327,42,31,09,170,*78
$GPGSV,4,4,13,32,42,112,43*49
$GPGLL,3542.06427,N,05123.49082,E,083543.00,A,A*65
$GPRMC,083544.00,A,3542.06431,N,05123.49086,E,0.572,,280823,,,A*7B
$GPVTG,,T,,M,0.572,N,1.059,K,A*2E
$GPGGA,083544.00,3542.06431,N,05123.49086,E,1,06,3.18,1358.7,M,-17.6,M,,*4D
$GPGSA,A,3,08,27,32,10,18,03,,,,,,,5.63,3.18,4.64*09
$GPGSV,4,1,13,01,20,315,46,02,39,315,,03,05,229,45,08,73,304,47*71
$GPGSV,4,2,13,10,42,044,46,18,14,049,45,21,00,091,45,23,12,077,*70
$GPGSV,4,3,13,24,00,032,,27,66,147,47,28,04,327,45,31,09,170,*7B
$GPGSV,4,4,13,32,42,112,46*4C
$GPGLL,3542.06431,N,05123.49086,E,083544.00,A,A*61
$GPRMC,083545.00,A,3542.06442,N,05123.49121,E,1.690,,280823,,,A*7C
$GPVTG,,T,,M,1.690,N,3.129,K,A*24
$GPGGA,083545.00,3542.06442,N,05123.49121,E,1,06,3.18,1358.9,M,-17.6,M,,*4A
$GPGSA,A,3,08,27,32,10,18,03,,,,,,,5.63,3.18,4.64*09
$GPGSV,4,1,13,01,20,315,45,02,39,315,,03,05,229,44,08,73,304,46*72
$GPGSV,4,2,13,10,42,044,46,18,14,049,44,21,00,091,44,23,12,077,*70
$GPGSV,4,3,13,24,00,032,,27,66,147,46,28,04,327,44,31,09,170,*7B
$GPGSV,4,4,13,32,42,112,46*4C
$GPGLL,3542.06442,N,05123.49121,E,083545.00,A,A*68
$GPRMC,083546.00,A,3542.06444,N,05123.49097,E,0.233,,280823,,,A*79
$GPVTG,,T,,M,0.233,N,0.432,K,A*24
$GPGGA,083546.00,3542.06444,N,05123.49097,E,1,06,3.18,1358.7,M,-17.6,M,,*4D
$GPGSA,A,3,08,27,32,10,18,03,,,,,,,5.63,3.18,4.64*09
$GPGSV,4,1,13,01,20,315,42,02,39,315,,03,05,229,42,08,73,304,44*71
$GPGSV,4,2,13,10,42,044,43,18,14,049,42,21,00,091,41,23,12,077,*76
$GPGSV,4,3,13,24,00,032,,27,66,147,44,28,04,327,42,31,09,170,*7F
$GPGSV,4,4,13,32,42,112,43*49
$GPGLL,3542.06444,N,05123.49097,E,083546.00,A,A*61
$GPRMC,083547.00,A,3542.05834,N,05123.48756,E,24.079,190.00,280823,,,A*57
$GPVTG,190.00,T,,M,24.079,N,44.595,K,A*34
$GPGGA,083547.00,3542.05834,N,05123.48756,E,1,07,3.18,1350.5,M,-17.6,M,,*44
$GPGSA,A,3,08,27,32,02,10,18,03,,,,,,5.63,3.18,4.64*0B
$GPGSV,4,1,13,01,20,315,44,02,39,315,15,03,05,229,47,08,73,304,45*77
$GPGSV,4,2,13,10,42,044,48,18,14,049,47,21,00,091,28,23,12,077,*77
$GPGSV,4,3,13,24,00,032,,27,66,147,26,28,04,327,43,31,09,170,*7A
$GPGSV,4,4,13,32,42,112,30*4D
$GPGLL,3542.05834,N,05123.48756,E,083547.00,A,A*63
$GPRMC,083548.00,A,3542.05001,N,05123.48411,E,28.951,196.30,280823,,,A*5C
$GPVTG,196.30,T,,M,28.951,N,53.617,K,A*31
$GPGGA,083548.00,3542.05001,N,05123.48411,E,1,07,3.31,1345.4,M,-17.6,M,,*4B
$GPGSA,A,3,08,27,32,02,10,18,03,,,,,,5.70,3.31,4.65*03
$GPGSV,4,1,13,01,20,315,43,02,39,315,10,03,05,229,46,08,73,304,44*75
$GPGSV,4,2,13,10,42,044,47,18,14,049,46,21,00,091,29,23,12,077,*78
$GPGSV,4,3,13,24,00,032,,27,66,147,30,28,04,327,42,31,09,170,*7C
$GPGSV,4,4,13,32,42,112,35*48
$GPGLL,3542.05001,N,05123.48411,E,083548.00,A,A*62
$GPRMC,083549.00,A,3542.04924,N,05123.47642,E,17.602,237.89,280823,,,A*56
$GPVTG,237.89,T,,M,17.602,N,32.599,K,A*3C
$GPGGA,083549.00,3542.04924,N,05123.47642,E,1,06,3.31,1339.9,M,-17.6,M,,*49
$GPGSA,A,3,08,27,32,10,18,03,,,,,,,5.70,3.31,4.65*01
$GPGSV,4,1,13,01,20,315,40,02,39,315,,03,05,229,43,08,73,304,40*76
$GPGSV,4,2,13,10,42,044,43,18,14,049,42,21,00,091,42,23,12,077,*75
$GPGSV,4,3,13,24,00,032,,27,66,147,44,28,04,327,38,31,09,170,*72
$GPGSV,4,4,13,32,42,112,45*4F
$GPGLL,3542.04924,N,05123.47642,E,083549.00,A,A*67
$GPRMC,083550.00,A,3542.05015,N,05123.47817,E,2.493,,280823,,,A*7D
$GPVTG,,T,,M,2.493,N,4.616,K,A*2A
$GPGGA,083550.00,3542.05015,N,05123.47817,E,1,06,3.18,1344.2,M,-17.6,M,,*4F
$GPGSA,A,3,08,27,32,10,18,03,,,,,,,5.63,3.18,4.64*09
$GPGSV,4,1,13,01,20,315,44,02,39,315,,03,05,229,46,08,73,304,48*7F
$GPGSV,4,2,13,10,42,044,49,18,14,049,48,21,00,091,48,23,12,077,*7F
$GPGSV,4,3,13,24,00,032,,27,66,147,49,28,04,327,44,31,09,170,*74
$GPGSV,4,4,13,32,42,112,48*42
$GPGLL,3542.05015,N,05123.47817,E,083550.00,A,A*6B
$GPRMC,083551.00,A,3542.05086,N,05123.47716,E,3.402,242.16,280823,,,A*6C
$GPVTG,242.16,T,,M,3.402,N,6.300,K,A*3E
$GPGGA,083551.00,3542.05086,N,05123.47716,E,1,06,3.18,1342.9,M,-17.6,M,,*47
$GPGSA,A,3,08,27,32,10,18,03,,,,,,,5.63,3.18,4.64*09
$GPGSV,4,1,13,01,20,315,38,02,39,315,,03,05,229,41,08,73,304,42*79
$GPGSV,4,2,13,10,42,044,43,18,14,049,42,21,00,091,41,23,12,077,*76
$GPGSV,4,3,13,24,00,032,,27,66,147,43,28,04,327,37,31,09,170,*7A
$GPGSV,4,4,13,32,42,112,42*48
$GPGLL,3542.05086,N,05123.47716,E,083551.00,A,A*6E
$GPRMC,083552.00,A,3542.05088,N,05123.47665,E,1.224,,280823,,,A*79
$GPVTG,,T,,M,1.224,N,2.267,K,A*27
$GPGGA,083552.00,3542.05088,N,05123.47665,E,1,06,3.18,1341.2,M,-17.6,M,,*47
$GPGSA,A,3,08,27,32,10,18,03,,,,,,,5.63,3.18,4.64*09
$GPGSV,4,1,13,01,20,315,41,02,39,315,21,03,05,229,44,08,73,304,46*75
$GPGSV,4,2,13,10,42,044,45,18,14,049,44,21,00,091,44,23,12,077,*73
$GPGSV,4,3,13,24,00,032,,27,66,147,46,28,04,327,40,31,09,170,*7F
$GPGSV,4,4,13,32,42,112,46*4C
$GPGLL,3542.05088,N,05123.47665,E,083552.00,A,A*66
$GPRMC,083553.00,A,3542.05108,N,05123.47663,E,1.793,247.52,280823,,,A*66
$GPVTG,247.52,T,,M,1.793,N,3.322,K,A*37
$GPGGA,083553.00,3542.05108,N,05123.47663,E,1,06,3.18,1341.1,M,-17.6,M,,*4A
$GPGSA,A,3,08,27,32,10,18,03,,,,,,,5.63,3.18,4.64*09
$GPGSV,4,1,13,01,20,315,43,02,39,315,,03,05,229,45,08,73,304,48*7B
$GPGSV,4,2,13,10,42,044,47,18,14,049,46,21,00,091,46,23,12,077,*71
$GPGSV,4,3,13,24,00,032,,27,66,147,47,28,04,327,42,31,09,170,*7C
$GPGSV,4,4,13,32,42,112,46*4C
$GPGLL,3542.05108,N,05123.47663,E,083553.00,A,A*68
$GPRMC,083554.00,A,3542.05120,N,05123.47634,E,1.450,,280823,,,A*7D
$GPVTG,,T,,M,1.450,N,2.685,K,A*2A
$GPGGA,083554.00,3542.05120,N,05123.47634,E,1,06,3.18,1340.3,M,-17.6,M,,*46
$GPGSA,A,3,08,27,32,10,18,03,,,,,,,5.62,3.18,4.64*08
$GPGSV,4,1,13,01,20,315,43,02,39,315,,03,05,229,42,08,73,304,48*7C
$GPGSV,4,2,13,10,42,044,46,18,14,049,45,21,00,091,45,23,12,077,*70
$GPGSV,4,3,13,24,00,032,,27,66,147,48,28,04,327,42,31,09,170,*73
$GPGSV,4,4,13,32,42,112,44*4E
$GPGLL,3542.05120,N,05123.47634,E,083554.00,A,A*67
$GPRMC,083555.00,A,3542.05141,N,05123.47650,E,0.866,,280823,,,A*71
$GPVTG,,T,,M,0.866,N,1.604,K,A*28
$GPGGA,083555.00,3542.05141,N,05123.47650,E,1,06,3.18,1340.2,M,-17.6,M,,*43
$GPGSA,A,3,08,27,32,10,18,03,,,,,,,5.62,3.18,4.64*08
$GPGSV,4,1,13,01,20,315,44,02,39,315,,03,05,229,46,08,73,304,49*7E
$GPGSV,4,2,13,10,42,044,48,18,14,049,47,21,00,091,47,23,12,077,35*78
$GPGSV,4,3,13,24,00,032,,27,66,147,49,28,04,327,46,31,09,170,*76
$GPGSV,4,4,13,32,42,112,47*4D
$GPGLL,3542.05141,N,05123.47650,E,083555.00,A,A*63
$GPRMC,083556.00,A,3542.05139,N,05123.47627,E,1.098,,280823,,,A*75
$GPVTG,,T,,M,1.098,N,2.034,K,A*26
$GPGGA,083556.00,3542.05139,N,05123.47627,E,1,06,3.18,1339.1,M,-17.6,M,,*42
$GPGSA,A,3,08,27,32,10,18,03,,,,,,,5.62,3.18,4.64*08
$GPGSV,4,1,13,01,20,315,35,02,39,315,,03,05,229,39,08,73,304,39*77
$GPGSV,4,2,13,10,42,044,37,18,14,049,37,21,00,091,37,23,12,077,*76
$GPGSV,4,3,13,24,00,032,,27,66,147,38,28,04,327,38,31,09,170,*79
$GPGSV,4,4,13,32,42,112,39*44
$GPGLL,3542.05139,N,05123.47627,E,083556.00,A,A*6F
$GPRMC,083557.00,A,3542.05153,N,05123.47619,E,0.854,,280823,,,A*7C
$GPVTG,,T,,M,0.854,N,1.582,K,A*24
$GPGGA,083557.00,3542.05153,N,05123.47619,E,1,06,3.18,1338.5,M,-17.6,M,,*47
$GPGSA,A,3,08,27,32,10,18,03,,,,,,,5.62,3.18,4.64*08
$GPGSV,4,1,13,01,20,315,41,02,39,315,,03,05,229,43,08,73,304,46*71
$GPGSV,4,2,13,10,42,044,45,18,14,049,44,21,00,091,44,23,12,077,*73
$GPGSV,4,3,13,24,00,032,,27,66,147,46,28,04,327,44,31,09,170,*7B
$GPGSV,4,4,13,32,42,112,45*4F
$GPGLL,3542.05153,N,05123.47619,E,083557.00,A,A*6F
$GPRMC,083558.00,A,3542.05164,N,05123.47628,E,0.415,,280823,,,A*7C
$GPVTG,,T,,M,0.415,N,0.768,K,A*2A
$GPGGA,083558.00,3542.05164,N,05123.47628,E,1,06,3.18,1338.0,M,-17.6,M,,*4B
$GPGSA,A,3,08,27,32,10,18,03,,,,,,,5.62,3.18,4.64*08
$GPGSV,4,1,13,01,20,316,40,02,39,315,,03,05,229,43,08,73,304,45*70
$GPGSV,4,2,13,10,42,044,44,18,14,049,43,21,00,091,43,23,12,077,*72
$GPGSV,4,3,13,24,00,032,,27,66,147,45,28,04,327,43,31,09,170,*7F
$GPGSV,4,4,13,32,42,112,44*4E
$GPGLL,3542.05164,N,05123.47628,E,083558.00,A,A*66
$GPRMC,083559.00,A,3542.05175,N,05123.47611,E,0.600,,280823,,,A*71
$GPVTG,,T,,M,0.600,N,1.111,K,A*25
$GPGGA,083559.00,3542.05175,N,05123.47611,E,1,07,3.18,1337.3,M,-17.6,M,,*4D
$GPGSA,A,3,08,27,32,10,23,18,03,,,,,,5.62,3.18,4.64*09
$GPGSV,4,1,13,01,20,316,33,02,39,315,,03,05,229,42,08,73,304,36*71
$GPGSV,4,2,13,10,42,044,39,18,14,049,38,21,00,091,37,23,12,077,32*76
$GPGSV,4,3,13,24,00,032,,27,66,147,37,28,04,327,37,31,09,170,*79
$GPGSV,4,4,13,32,42,112,43*49
$GPGLL,3542.05175,N,05123.47611,E,083559.00,A,A*6D
$GPRMC,083600.00,A,3542.05188,N,05123.47607,E,0.307,,280823,,,A*79
$GPVTG,,T,,M,0.307,N,0.569,K,A*2D
$GPGGA,083600.00,3542.05188,N,05123.47607,E,1,07,3.18,1336.9,M,-17.6,M,,*4C
$GPGSA,A,3,08,27,32,10,23,18,03,,,,,,5.62,3.18,4.64*09
$GPGSV,4,1,13,01,20,316,43,02,39,315,39,03,05,229,46,08,73,304,49*70
$GPGSV,4,2,13,10,42,044,48,18,14,049,47,21,00,091,47,23,12,077,29*75
$GPGSV,4,3,13,24,00,032,,27,66,147,48,28,04,327,46,31,09,170,*77
$GPGSV,4,4,13,32,42,112,47*4D
$GPGLL,3542.05188,N,05123.47607,E,083600.00,A,A*67
$GPRMC,083601.00,A,3542.05189,N,05123.47597,E,0.520,,280823,,,A*70
$GPVTG,,T,,M,0.520,N,0.964,K,A*2F
$GPGGA,083601.00,3542.05189,N,05123.47597,E,1,06,3.18,1336.8,M,-17.6,M,,*46
$GPGSA,A,3,08,27,32,10,18,03,,,,,,,5.62,3.18,4.64*08
$GPGSV,4,1,13,01,20,316,42,02,39,315,,03,05,229,44,08,73,304,47*77
$GPGSV,4,2,13,10,42,044,46,18,14,049,44,21,00,091,44,23,12,077,*70
$GPGSV,4,3,13,24,00,032,,27,66,147,46,28,04,327,44,31,09,170,*7B
$GPGSV,4,4,13,32,42,112,46*4C
$GPGLL,3542.05189,N,05123.47597,E,083601.00,A,A*6D
$GPRMC,083602.00,A,3542.05201,N,05123.47585,E,0.526,,280823,,,A*75
$GPVTG,,T,,M,0.526,N,0.973,K,A*2F
$GPGGA,083602.00,3542.05201,N,05123.47585,E,1,07,3.18,1336.6,M,-17.6,M,,*4A
$GPGSA,A,3,08,27,32,02,10,18,03,,,,,,5.62,3.18,4.64*0A
$GPGSV,4,1,13,01,20,316,41,02,39,315,27,03,05,229,44,08,73,304,46*70
$GPGSV,4,2,13,10,42,044,45,18,14,049,44,21,00,091,44,23,12,077,27*76
$GPGSV,4,3,13,24,00,032,,27,66,147,46,28,04,327,44,31,09,170,*7B
$GPGSV,4,4,13,32,42,112,45*4F
$GPGLL,3542.05201,N,05123.47585,E,083602.00,A,A*6E
$GPRMC,083603.00,A,3542.05217,N,05123.47563,E,0.746,,280823,,,A*7F
$GPVTG,,T,,M,0.746,N,1.382,K,A*2E
$GPGGA,083603.00,3542.05217,N,05123.47563,E,1,07,3.18,1336.3,M,-17.6,M,,*41
$GPGSA,A,3,08,27,32,10,23,18,03,,,,,,5.62,3.18,4.64*09
$GPGSV,4,1,13,01,20,316,43,02,39,315,27,03,05,229,46,08,73,304,47*71
$GPGSV,4,2,13,10,42,044,47,18,14,049,46,21,00,091,45,23,12,077,26*76
$GPGSV,4,3,13,24,00,032,,27,66,147,47,28,04,327,45,31,09,170,*7B
$GPGSV,4,4,13,32,42,112,47*4D
$GPGLL,3542.05217,N,05123.47563,E,083603.00,A,A*60
$GPRMC,083604.00,A,3542.05226,N,05123.47562,E,0.401,,280823,,,A*7B
$GPVTG,,T,,M,0.401,N,0.743,K,A*26
$GPGGA,083604.00,3542.05226,N,05123.47562,E,1,08,3.18,1336.1,M,-17.6,M,,*48
$GPGSA,A,3,08,27,32,02,10,23,18,03,,,,,5.62,3.18,4.64*0B
$GPGSV,4,1,13,01,20,316,43,02,39,315,25,03,05,229,45,08,73,304,48*7F
$GPGSV,4,2,13,10,42,044,47,18,14,049,46,21,00,091,45,23,12,077,27*77
$GPGSV,4,3,13,24,00,032,,27,66,147,47,28,04,327,45,31,09,170,*7B
$GPGSV,4,4,13,32,42,112,47*4D
$GPGLL,3542.05226,N,05123.47562,E,083604.00,A,A*64
$GPRMC,083605.00,A,3542.05249,N,05123.47615,E,0.060,,280823,,,A*73
$GPVTG,,T,,M,0.060,N,0.111,K,A*24
$GPGGA,083605.00,3542.05249,N,05123.47615,E,1,07,3.18,1337.4,M,-17.6,M,,*48
$GPGSA,A,3,08,27,32,02,10,18,03,,,,,,5.62,3.18,4.64*0A
$GPGSV,4,1,13,01,20,316,44,02,39,315,24,03,05,229,47,08,73,303,49*7D
$GPGSV,4,2,13,10,42,044,49,18,14,049,48,21,00,091,47,23,12,077,*70
$GPGSV,4,3,13,24,00,032,,27,66,147,49,28,04,327,48,31,09,170,*78
$GPGSV,4,4,13,32,42,112,49*43
$GPGLL,3542.05249,N,05123.47615,E,083605.00,A,A*6F
$GPRMC,083606.00,A,3542.05245,N,05123.47623,E,0.427,,280823,,,A*7E
$GPVTG,,T,,M,0.427,N,0.791,K,A*2D
$GPGGA,083606.00,3542.05245,N,05123.47623,E,1,06,3.18,1337.3,M,-17.6,M,,*44
$GPGSA,A,3,08,27,32,10,18,03,,,,,,,5.62,3.18,4.64*08
$GPGSV,4,1,13,01,20,316,42,02,39,315,,03,05,229,46,08,73,303,47*72
$GPGSV,4,2,13,10,42,044,46,18,14,049,46,21,00,091,46,23,12,077,*70
$GPGSV,4,3,13,24,00,032,,27,66,147,47,28,04,327,45,31,09,170,*7B
$GPGSV,4,4,13,32,42,112,47*4D
$GPGLL,3542.05245,N,05123.47623,E,083606.00,A,A*65
$GPRMC,083607.00,A,3542.05241,N,05123.47630,E,0.299,,280823,,,A*7A
$GPVTG,,T,,M,0.299,N,0.554,K,A*25
$GPGGA,083607.00,3542.05241,N,05123.47630,E,1,06,3.18,1337.2,M,-17.6,M,,*42
$GPGSA,A,3,08,27,32,10,18,03,,,,,,,5.62,3.18,4.63*0F
$GPGSV,4,1,13,01,20,316,40,02,39,315,,03,05,229,44,08,73,303,44*71
$GPGSV,4,2,13,10,42,044,43,18,14,049,42,21,00,091,42,23,12,077,*75
$GPGSV,4,3,13,24,00,032,,27,66,147,45,28,04,327,42,31,09,170,*7E
$GPGSV,4,4,13,32,42,112,46*4C
$GPGLL,3542.05241,N,05123.47630,E,083607.00,A,A*62
$GPRMC,083608.00,A,3542.05241,N,05123.47631,E,0.148,,280823,,,A*7B
$GPVTG,,T,,M,0.148,N,0.274,K,A*2F
$GPGGA,083608.00,3542.05241,N,05123.47631,E,1,06,3.18,1337.1,M,-17.6,M,,*4F
$GPGSA,A,3,08,27,32,10,18,03,,,,,,,5.62,3.18,4.63*0F
$GPGSV,4,1,13,01,20,316,43,02,39,315,,03,05,229,46,08,73,303,48*7C
$GPGSV,4,2,13,10,42,044,47,18,14,049,47,21,00,091,46,23,12,077,*70
$GPGSV,4,3,13,24,00,032,,27,66,147,48,28,04,327,46,31,09,170,*77
$GPGSV,4,4,13,32,42,112,48*42
$GPGLL,3542.05241,N,05123.47631,E,083608.00,A,A*6C
$GPRMC,083609.00,A,3542.05258,N,05123.47609,E,0.533,,280823,,,A*71
$GPVTG,,T,,M,0.533,N,0.987,K,A*20
$GPGGA,083609.00,3542.05258,N,05123.47609,E,1,06,3.18,1336.9,M,-17.6,M,,*44
$GPGSA,A,3,08,27,32,10,18,03,,,,,,,5.62,3.18,4.63*0F
$GPGSV,4,1,13,01,20,316,42,02,39,315,29,03,05,229,45,08,73,303,47*7A
$GPGSV,4,2,13,10,42,044,46,18,14,049,45,21,00,091,45,23,12,077,*70
$GPGSV,4,3,13,24,00,032,29,27,66,147,46,28,04,327,45,31,09,170,*71
$GPGSV,4,4,13,32,42,112,46*4C
$GPGLL,3542.05258,N,05123.47609,E,083609.00,A,A*6E
$GPRMC,083610.00,A,3542.05306,N,05123.47657,E,1.700,,280823,,,A*7B
$GPVTG,,T,,M,1.700,N,3.148,K,A*2B
$GPGGA,083610.00,3542.05306,N,05123.47657,E,1,07,3.18,1336.8,M,-17.6,M,,*4D
$GPGSA,A,3,08,27,32,02,10,18,03,,,,,,5.62,3.18,4.63*0D
$GPGSV,4,1,13,01,20,316,44,02,39,315,18,03,05,229,27,08,73,303,29*72
$GPGSV,4,2,13,10,42,044,41,18,14,049,41,21,00,091,44,23,12,077,*72
$GPGSV,4,3,13,24,00,032,,27,66,147,42,28,04,327,44,31,09,170,*7F
$GPGSV,4,4,13,32,42,112,29*45
$GPGLL,3542.05306,N,05123.47657,E,083610.00,A,A*67
$GPRMC,083611.00,A,3542.05337,N,05123.47697,E,0.871,,280823,,,A*7C
$GPVTG,,T,,M,0.871,N,1.613,K,A*28
$GPGGA,083611.00,3542.05337,N,05123.47697,E,1,06,8.99,1337.2,M,-17.6,M,,*4A
$GPGSA,A,2,08,27,32,10,18,03,,,,,,,9.05,8.99,1.00*01
$GPGSV,4,1,13,01,20,316,46,02,39,315,,03,05,229,28,08,73,303,30*7E
$GPGSV,4,2,13,10,42,044,43,18,14,049,42,21,00,091,45,23,12,077,*72
$GPGSV,4,3,13,24,00,032,,27,66,147,43,28,04,327,45,31,09,170,*7F
$GPGSV,4,4,13,32,42,112,29*45
$GPGLL,3542.05337,N,05123.47697,E,083611.00,A,A*68

