,11,10,36,063,40,18,04,051,,23,06,084,27,27,58,152,*74
$GPGSV,3,3,11,28,06,321,,31,21,165,,32,66,035,39*4B
$GPGLL,3236.19988,N,05139.34521,E,085920.00,A,A*65
$GPRMC,085921.00,A,3236.19977,N,05139.34518,E,0.130,,280823,,,A*76
$GPVTG,,T,,M,0.130,N,0.241,K,A*26
$GPGGA,085921.00,3236.19977,N,05139.34518,E,1,05,6.45,1732.2,M,-17.6,M,,*41
$GPGSA,A,3,32,02,10,23,03,,,,,,,,6.98,6.45,2.68*0E
$GPGSV,3,1,11,01,27,319,40,02,46,316,44,03,06,280,34,08,79,282,*72
$GPGSV,3,2,11,10,36,063,38,18,04,051,,23,06,084,25,27,58,152,*79
$GPGSV,3,3,11,28,06,321,,31,21,165,,32,66,035,34*46
$GPGLL,3236.19977,N,05139.34518,E,085921.00,A,A*6E
$GPRMC,085922.00,A,3236.19966,N,05139.34514,E,0.147,,280823,,,A*79
$GPVTG,,T,,M,0.147,N,0.273,K,A*27
$GPGGA,085922.00,3236.19966,N,05139.34514,E,1,05,6.45,1732.2,M,-17.6,M,,*4E
$GPGSA,A,3,32,02,10,23,03,,,,,,,,6.99,6.45,2.68*0F
$GPGSV,3,1,11,01,27,319,44,02,46,316,47,03,06,280,34,08,79,282,*75
$GPGSV,3,2,11,10,36,063,40,18,04,051,,23,06,084,25,27,58,152,*76
$GPGSV,3,3,11,28,06,321,,31,21,165,,32,66,035,39*4B
$GPGLL,3236.19966,N,05139.34514,E,085922.00,A,A*61
$GPRMC,085923.00,A,3236.19960,N,05139.34512,E,0.187,,280823,,,A*74
$GPVTG,,T,,M,0.187,N,0.347,K,A*2D
$GPGGA,085923.00,3236.19960,N,05139.34512,E,1,05,6.46,1732.1,M,-17.6,M,,*4F
$GPGSA,A,3,32,02,10,23,03,,,,,,,,6.99,6.46,2.68*0C
$GPGSV,3,1,11,01,27,319,42,02,46,316,46,03,06,280,33,08,79,282,*75
$GPGSV,3,2,11,10,36,063,40,18,04,051,,23,06,084,25,27,58,152,*76
$GPGSV,3,3,11,28,06,321,,31,21,165,,32,66,035,37*45
$GPGLL,3236.19960,N,05139.34512,E,085923.00,A,A*60
$GPRMC,085924.00,A,3236.19943,N,05139.34508,E,0.097,,280823,,,A*79
$GPVTG,,T,,M,0.097,N,0.180,K,A*24
$GPGGA,085924.00,3236.19943,N,05139.34508,E,1,05,6.47,1732.1,M,-17.6,M,,*43
$GPGSA,A,3,32,02,10,23,03,,,,,,,,7.00,6.47,2.68*0C
$GPGSV,3,1,11,01,27,319,44,02,46,316,48,03,06,280,35,08,79,282,*7B
$GPGSV,3,2,11,10,36,063,43,18,04,051,,23,06,084,26,27,58,152,*76
$GPGSV,3,3,11,28,06,321,,31,21,165,,32,66,035,39*4B
$GPGLL,3236.19943,N,05139.34508,E,085924.00,A,A*6D
$GPRMC,085925.00,A,3236.19937,N,05139.34505,E,0.114,,280823,,,A*7C
$GPVTG,,T,,M,0.114,N,0.211,K,A*25
$GPGGA,085925.00,3236.19937,N,05139.34505,E,1,06,6.48,1732.1,M,-17.6,M,,*40
$GPGSA,A,3,32,02,10,31,23,03,,,,,,,7.01,6.48,2.69*01
$GPGSV,3,1,11,01,27,319,41,02,46,316,44,03,06,280,31,08,79,282,*76
$GPGSV,3,2,11,10,36,063,39,18,04,051,,23,06,084,26,27,58,152,*7B
$GPGSV,3,3,11,28,06,321,,31,21,165,17,32,66,035,37*43
$GPGLL,3236.19937,N,05139.34505,E,085925.00,A,A*62
$GPRMC,085926.00,A,3236.19926,N,05139.34502,E,0.128,,280823,,,A*77
$GPVTG,,T,,M,0.128,N,0.237,K,A*2E
$GPGGA,085926.00,3236.19926,N,05139.34502,E,1,06,6.48,1732.1,M,-17.6,M,,*44
$GPGSA,A,3,32,02,10,31,23,03,,,,,,,7.02,6.48,2.69*02
$GPGSV,3,1,11,01,27,319,43,02,46,316,46,03,06,280,32,08,79,282,*75
$GPGSV,3,2,11,10,36,063,40,18,04,051,,23,06,084,25,27,58,152,*76
$GPGSV,3,3,11,28,06,321,,31,21,165,18,32,66,035,38*43
$GPGLL,3236.19926,N,05139.34502,E,085926.00,A,A*66
$GPRMC,085927.00,A,3236.19914,N,05139.34499,E,0.114,,280823,,,A*7B
$GPVTG,,T,,M,0.114,N,0.211,K,A*25
$GPGGA,085927.00,3236.19914,N,05139.34499,E,1,05,6.49,1732.0,M,-17.6,M,,*44
$GPGSA,A,3,32,02,10,23,03,,,,,,,,7.03,6.49,2.69*00
$GPGSV,3,1,11,01,27,319,44,02,46,316,48,03,06,280,34,08,79,282,*7A
$GPGSV,3,2,11,10,36,063,43,18,04,051,,23,06,084,27,27,58,152,*77
$GPGSV,3,3,11,28,06,321,,31,21,165,,32,66,035,39*4B
$GPGLL,3236.19914,N,05139.34499,E,085927.00,A,A*65
$GPRMC,085928.00,A,3236.19899,N,05139.34497,E,0.097,,280823,,,A*74
$GPVTG,,T,,M,0.097,N,0.179,K,A*22
$GPGGA,085928.00,3236.19899,N,05139.34497,E,1,06,6.50,1732.0,M,-17.6,M,,*4A
$GPGSA,A,3,32,02,10,31,23,03,,,,,,,7.04,6.50,2.70*05
$GPGSV,3,1,11,01,27,319,43,02,46,316,47,03,06,280,34,08,79,282,*72
$GPGSV,3,2,11,10,36,063,41,18,04,051,,23,06,084,28,27,58,152,*7A
$GPGSV,3,3,11,28,06,321,,31,21,165,21,32,66,035,38*49
$GPGLL,3236.19899,N,05139.34497,E,085928.00,A,A*60
$GPRMC,085929.00,A,3236.19885,N,05139.34494,E,0.106,,280823,,,A*72
$GPVTG,,T,,M,0.106,N,0.196,K,A*2A
$GPGGA,085929.00,3236.19885,N,05139.34494,E,1,06,6.51,1732.0,M,-17.6,M,,*44
$GPGSA,A,3,32,02,10,31,23,03,,,,,,,7.04,6.51,2.70*04
$GPGSV,3,1,11,01,27,319,43,02,46,316,47,03,06,280,34,08,79,282,*72
$GPGSV,3,2,11,10,36,063,41,18,04,051,,23,06,084,28,27,58,152,*7A
$GPGSV,3,3,11,28,06,321,,31,21,165,21,32,66,035,38*49
$GPGLL,3236.19885,N,05139.34494,E,085929.00,A,A*6F
$GPRMC,085930.00,A,3236.19868,N,05139.34492,E,0.086,,280823,,,A*76
$GPVTG,,T,,M,0.086,N,0.160,K,A*2A
$GPGGA,085930.00,3236.19868,N,05139.34492,E,1,05,6.51,1732.0,M,-17.6,M,,*4A
$GPGSA,A,3,32,02,10,23,03,,,,,,,,7.05,6.51,2.70*07
$GPGSV,3,1,11,01,27,319,44,02,46,316,48,03,06,280,35,08,79,282,*7B
$GPGSV,3,2,11,10,36,063,43,18,04,052,,23,06,084,27,27,58,152,*74
$GPGSV,3,3,11,28,06,321,,31,21,165,,32,66,035,40*45
$GPGLL,3236.19868,N,05139.34492,E,085930.00,A,A*62
$GPRMC,085931.00,A,3236.19856,N,05139.34490,E,0.129,,280823,,,A*7C
$GPVTG,,T,,M,0.129,N,0.238,K,A*20
$GPGGA,085931.00,3236.19856,N,05139.34490,E,1,06,6.52,1731.9,M,-17.6,M,,*4E
$GPGSA,A,3,32,02,10,31,23,03,,,,,,,7.06,6.52,2.70*05
$GPGSV,3,1,11,01,27,319,43,02,46,316,46,03,06,280,34,08,79,282,*73
$GPGSV,3,2,11,10,36,063,42,18,04,052,,23,06,084,28,27,58,152,*7A
$GPGSV,3,3,11,28,06,321,,31,21,165,23,32,66,035,39*4A
$GPGLL,3236.19856,N,05139.34490,E,085931.00,A,A*6C
$GPRMC,085932.00,A,3236.19847,N,05139.34488,E,0.152,,280823,,,A*7A
$GPVTG,,T,,M,0.152,N,0.282,K,A*2D
$GPGGA,085932.00,3236.19847,N,05139.34488,E,1,06,6.53,1731.9,M,-17.6,M,,*45
$GPGSA,A,3,32,02,10,31,23,03,,,,,,,7.07,6.53,2.71*04
$GPGSV,3,1,11,01,27,319,43,02,46,316,46,03,06,280,33,08,79,282,*74
$GPGSV,3,2,11,10,36,063,41,18,04,052,,23,06,084,28,27,58,152,*79
$GPGSV,3,3,11,28,06,321,,31,21,165,22,32,66,035,39*4B
$GPGLL,3236.19847,N,05139.34488,E,085932.00,A,A*66
$GPRMC,085933.00,A,3236.19845,N,05139.34488,E,0.108,,280823,,,A*76
$GPVTG,,T,,M,0.108,N,0.200,K,A*28
$GPGGA,085933.00,3236.19845,N,05139.34488,E,1,06,1.14,1731.8,M,-17.6,M,,*43
$GPGSA,A,3,32,02,10,31,23,03,,,,,,,1.84,1.14,1.45*09
$GPGSV,3,1,11,01,27,319,43,02,46,316,47,03,06,280,34,08,79,282,*72
$GPGSV,3,2,11,10,36,063,41,18,04,052,,23,06,084,28,27,58,152,*79
$GPGSV,3,3,11,28,06,321,,31,21,165,22,32,66,035,39*4B
$GPGLL,3236.19845,N,05139.34488,E,085933.00,A,A*65
$GPRMC,085934.00,A,3236.19845,N,05139.34487,E,0.049,,280823,,,A*7A
$GPVTG,,T,,M,0.049,N,0.090,K,A*27
$GPGGA,085934.00,3236.19845,N,05139.34487,E,1,06,1.14,1731.8,M,-17.6,M,,*4B
$GPGSA,A,3,32,02,10,31,23,03,,,,,,,1.84,1.14,1.45*09
$GPGSV,3,1,11,01,27,319,42,02,46,316,46,03,06,280,34,08,79,282,*72
$GPGSV,3,2,11,10,36,063,40,18,04,052,,23,06,084,27,27,58,152,*77
$GPGSV,3,3,11,28,06,321,,31,21,165,23,32,66,035,40*44
$GPGLL,3236.19845,N,05139.34487,E,085934.00,A,A*6D
$GPRMC,085935.00,A,3236.19855,N,05139.34487,E,0.128,,280823,,,A*7C
$GPVTG,,T,,M,0.128,N,0.236,K,A*2F
$GPGGA,085935.00,3236.19855,N,05139.34487,E,1,06,1.14,1731.6,M,-17.6,M,,*45
$GPGSA,A,3,32,02,10,31,23,03,,,,,,,1.84,1.14,1.45*09
$GPGSV,3,1,11,01,27,319,44,02,46,316,48,03,06,280,34,08,79,282,*7A
$GPGSV,3,2,11,10,36,063,41,18,04,052,,23,05,084,26,27,58,152,*74
$GPGSV,3,3,11,28,06,321,,31,21,165,23,32,66,035,41*45
$GPGLL,3236.19855,N,05139.34487,E,085935.00,A,A*6D
$GPRMC,085936.00,A,3236.19890,N,05139.34492,E,0.194,,280823,,,A*75
$GPVTG,,T,,M,0.194,N,0.360,K,A*2A
$GPGGA,085936.00,3236.19890,N,05139.34492,E,1,06,1.14,1731.4,M,-17.6,M,,*49
$GPGSA,A,3,32,02,10,31,23,03,,,,,,,1.84,1.14,1.45*09
$GPGSV,3,1,11,01,27,319,31,02,46,316,34,03,06,280,28,08,79,282,*7E
$GPGSV,3,2,11,10,36,063,25,18,04,052,,23,05,084,26,27,58,152,*76
$GPGSV,3,3,11,28,06,321,,31,21,165,23,32,66,035,30*43
$GPGLL,3236.19890,N,05139.34492,E,085936.00,A,A*63
$GPRMC,085937.00,A,3236.19889,N,05139.34493,E,0.066,,280823,,,A*71
$GPVTG,,T,,M,0.066,N,0.122,K,A*22
$GPGGA,085937.00,3236.19889,N,05139.34493,E,1,06,1.14,1731.3,M,-17.6,M,,*46
$GPGSA,A,3,32,02,10,31,23,03,,,,,,,1.84,1.14,1.45*09
$GPGSV,3,1,11,01,27,319,38,02,46,316,43,03,06,280,27,08,79,282,*78
$GPGSV,3,2,11,10,36,063,36,18,04,052,,23,05,084,30,27,58,152,*73
$GPGSV,3,3,11,28,06,321,,31,21,165,22,32,66,035,32*40
$GPGLL,3236.19889,N,05139.34493,E,085937.00,A,A*6B
$GPRMC,085938.00,A,3236.19862,N,05139.34488,E,0.387,,280823,,,A*7D
$GPVTG,,T,,M,0.387,N,0.716,K,A*2F
$GPGGA,085938.00,3236.19862,N,05139.34488,E,1,06,1.14,1731.4,M,-17.6,M,,*41
$GPGSA,A,3,32,02,10,31,23,03,,,,,,,1.84,1.14,1.45*09
$GPGSV,3,1,11,01,27,319,40,02,46,316,43,03,06,280,25,08,79,282,*75
$GPGSV,3,2,11,10,36,063,38,18,04,052,,23,05,084,30,27,58,152,*7D
$GPGSV,3,3,11,28,06,321,,31,21,165,20,32,66,035,29*48
$GPGLL,3236.19862,N,05139.34488,E,085938.00,A,A*6B
$GPRMC,085939.00,A,3236.19838,N,05139.34483,E,0.279,,280823,,,A*78
$GPVTG,,T,,M,0.279,N,0.517,K,A*2C
$GPGGA,085939.00,3236.19838,N,05139.34483,E,1,06,1.14,1731.5,M,-17.6,M,,*45
$GPGSA,A,3,32,02,10,31,23,03,,,,,,,1.84,1.14,1.45*09
$GPGSV,3,1,11,01,27,319,39,02,46,316,43,03,06,280,23,08,79,282,*7D
$GPGSV,3,2,11,10,36,063,37,18,04,052,,23,05,084,30,27,58,153,*73
$GPGSV,3,3,11,28,06,321,,31,21,165,20,32,66,035,28*49
$GPGLL,3236.19838,N,05139.34483,E,085939.00,A,A*6E
$GPRMC,085940.00,A,3236.19864,N,05139.34480,E,0.171,,280823,,,A*77
$GPVTG,,T,,M,0.171,N,0.316,K,A*20
$GPGGA,085940.00,3236.19864,N,05139.34480,E,1,06,1.14,1731.0,M,-17.6,M,,*44
$GPGSA,A,3,32,02,10,31,23,03,,,,,,,1.84,1.14,1.45*09
$GPGSV,3,1,11,01,27,319,40,02,46,316,48,03,06,280,31,08,79,282,*7B
$GPGSV,3,2,11,10,36,063,40,18,04,052,,23,05,084,29,27,58,153,*7B
$GPGSV,3,3,11,28,07,321,,31,21,165,29,32,66,035,38*40
$GPGLL,3236.19864,N,05139.34480,E,085940.00,A,A*6A
$GPRMC,085941.00,A,3236.19833,N,05139.34472,E,0.138,,280823,,,A*74
$GPVTG,,T,,M,0.138,N,0.255,K,A*2B
$GPGGA,085941.00,3236.19833,N,05139.34472,E,1,06,6.60,1730.8,M,-17.6,M,,*47
$GPGSA,A,3,32,02,10,31,23,03,,,,,,,7.14,6.60,2.73*04
$GPGSV,3,1,11,01,27,319,38,02,46,316,47,03,06,280,31,08,79,282,*7B
$GPGSV,3,2,11,10,36,063,40,18,04,052,,23,05,084,28,27,58,153,*7A
$GPGSV,3,3,11,28,07,321,,31,21,165,21,32,66,035,38*48
$GPGLL,3236.19833,N,05139.34472,E,085941.00,A,A*64
$GPRMC,085942.00,A,3236.19819,N,05139.34470,E,0.054,,280823,,,A*76
$GPVTG,,T,,M,0.054,N,0.099,K,A*22
$GPGGA,085942.00,3236.19819,N,05139.34470,E,1,06,1.14,1730.8,M,-17.6,M,,*4A
$GPGSA,A,3,32,02,10,31,23,03,,,,,,,1.84,1.14,1.45*09
$GPGSV,3,1,11,01,27,319,37,02,46,316,46,03,06,280,30,08,79,282,*74
$GPGSV,3,2,11,10,36,063,39,18,04,052,,23,05,084,26,27,58,153,*7A
$GPGSV,3,3,11,28,07,321,,31,21,165,23,32,66,035,36*44
$GPGLL,3236.19819,N,05139.34470,E,085942.00,A,A*6D
$GPRMC,085943.00,A,3236.19829,N,05139.34470,E,0.084,,280823,,,A*79
$GPVTG,,T,,M,0.084,N,0.156,K,A*2D
$GPGGA,085943.00,3236.19829,N,05139.34470,E,1,06,1.14,1730.4,M,-17.6,M,,*44
$GPGSA,A,3,32,02,10,31,23,03,,,,,,,1.84,1.14,1.45*09
$GPGSV,3,1,11,01,27,319,42,02,46,316,46,03,06,280,37,08,79,282,*71
$GPGSV,3,2,11,10,36,063,39,18,04,052,,23,05,084,26,27,58,153,*7A
$GPGSV,3,3,11,28,07,321,,31,22,165,25,32,66,035,34*43
$GPGLL,3236.19829,N,05139.34470,E,085943.00,A,A*6F
$GPRMC,085944.00,A,3236.19843,N,05139.34470,E,0.114,,280823,,,A*7A
$GPVTG,,T,,M,0.114,N,0.211,K,A*25
$GPGGA,085944.00,3236.19843,N,05139.34470,E,1,06,1.14,1730.2,M,-17.6,M,,*49
$GPGSA,A,3,32,02,10,31,23,03,,,,,,,1.84,1.14,1.45*09
$GPGSV,3,1,11,01,27,319,43,02,46,316,47,03,06,280,34,08,79,282,*72
$GPGSV,3,2,11,10,36,063,40,18,04,052,,23,05,084,28,27,58,153,*7A
$GPGSV,3,3,11,28,07,321,,31,22,165,25,32,66,035,37*40
$GPGLL,3236.19843,N,05139.34470,E,085944.00,A,A*64
$GPRMC,085945.00,A,3236.19844,N,05139.34469,E,0.194,,280823,,,A*7C
$GPVTG,,T,,M,0.194,N,0.359,K,A*20
$GPGGA,085945.00,3236.19844,N,05139.34469,E,1,06,1.14,1730.0,M,-17.6,M,,*45
$GPGSA,A,3,32,02,10,31,23,03,,,,,,,1.84,1.14,1.45*09
$GPGSV,3,1,11,01,27,319,44,02,46,316,49,03,06,280,31,08,79,282,*7E
$GPGSV,3,2,11,10,36,063,45,18,04,052,,23,05,084,28,27,58,153,*7F
$GPGSV,3,3,11,28,07,321,,31,22,165,26,32,66,035,39*4D
$GPGLL,3236.19844,N,05139.34469,E,085945.00,A,A*6A
$GPRMC,085946.00,A,3236.19840,N,05139.34467,E,0.027,,280823,,,A*7C
$GPVTG,,T,,M,0.027,N,0.050,K,A*23
$GPGGA,085946.00,3236.19840,N,05139.34467,E,1,06,1.14,1730.1,M,-17.6,M,,*4D
$GPGSA,A,3,32,02,10,31,23,03,,,,,,,1.84,1.14,1.45*09
$GPGSV,3,1,11,01,27,319,43,02,46,316,49,03,06,280,32,08,79,282,*7A
$GPGSV,3,2,11,10,36,063,45,18,04,052,,23,05,084,31,27,58,153,*77
$GPGSV,3,3,11,28,07,321,,31,22,165,25,32,66,035,38*4F
$GPGLL,3236.19840,N,05139.34467,E,085946.00,A,A*63
$GPRMC,085947.00,A,3236.19823,N,05139.34466,E,0.118,,280823,,,A*74
$GPVTG,,T,,M,0.118,N,0.218,K,A*20
$GPGGA,085947.00,3236.19823,N,05139.34466,E,1,06,6.65,1730.0,M,-17.6,M,,*48
$GPGSA,A,3,32,02,10,31,23,03,,,,,,,7.19,6.65,2.75*0A
$GPGSV,3,1,11,01,27,319,43,02,46,316,49,03,06,280,33,08,79,282,*7B
$GPGSV,3,2,11,10,36,063,46,18,04,052,,23,05,084,25,27,58,153,*71
$GPGSV,3,3,11,28,07,321,,31,22,165,26,32,66,035,38*4C
$GPGLL,3236.19823,N,05139.34466,E,085947.00,A,A*66
$GPRMC,085948.00,A,3236.19808,N,05139.34465,E,0.277,,280823,,,A*7B
$GPVTG,,T,,M,0.277,N,0.514,K,A*21
$GPGGA,085948.00,3236.19808,N,05139.34465,E,1,06,6.65,1729.9,M,-17.6,M,,*4C
$GPGSA,A,3,32,02,10,31,23,03,,,,,,,7.20,6.65,2.75*00
$GPGSV,3,1,11,01,27,319,42,02,46,316,49,03,06,280,34,08,79,282,*7D
$GPGSV,3,2,11,10,36,063,46,18,04,052,,23,05,084,24,27,58,153,*70
$GPGSV,3,3,11,28,07,321,,31,22,165,27,32,66,035,38*4D
$GPGLL,3236.19808,N,05139.34465,E,085948.00,A,A*63
$GPRMC,085949.00,A,3236.19786,N,05139.34463,E,0.021,,280823,,,A*74
$GPVTG,,T,,M,0.021,N,0.039,K,A*2A
$GPGGA,085949.00,3236.19786,N,05139.34463,E,1,07,6.66,1729.8,M,-17.6,M,,*41
$GPGSA,A,3,27,32,02,10,31,23,03,,,,,,7.21,6.66,2.75*07
$GPGSV,3,1,11,01,27,319,42,02,46,316,49,03,06,280,35,08,79,282,*7C
$GPGSV,3,2,11,10,36,063,46,18,04,052,,23,05,084,23,27,58,153,13*75
$GPGSV,3,3,11,28,07,321,,31,22,165,26,32,66,035,38*4C
$GPGLL,3236.19786,N,05139.34463,E,085949.00,A,A*6D
$GPRMC,085950.00,A,3236.19775,N,05139.34462,E,0.146,,280823,,,A*71
$GPVTG,,T,,M,0.146,N,0.271,K,A*24
$GPGGA,085950.00,3236.19775,N,05139.34462,E,1,07,6.67,1729.6,M,-17.6,M,,*4B
$GPGSA,A,3,27,32,02,10,31,23,03,,,,,,7.22,6.67,2.76*06
$GPGSV,3,1,11,01,27,319,42,02,46,316,49,03,06,280,34,08,79,282,*7D
$GPGSV,3,2,11,10,36,063,45,18,04,052,,23,05,084,25,27,58,153,15*76
$GPGSV,3,3,11,28,07,321,,31,22,165,26,32,66,035,39*4D
$GPGLL,3236.19775,N,05139.34462,E,085950.00,A,A*68
$GPRMC,085951.00,A,3236.19753,N,05139.34457,E,0.113,,280823,,,A*72
$GPVTG,,T,,M,0.113,N,0.209,K,A*2B
$GPGGA,085951.00,3236.19753,N,05139.34457,E,1,06,6.68,1729.3,M,-17.6,M,,*43
$GPGSA,A,3,32,02,10,31,23,03,,,,,,,7.23,6.68,2.76*0D
$GPGSV,3,1,11,01,27,319,42,02,46,316,49,03,06,280,34,08,79,282,*7D
$GPGSV,3,2,11,10,36,063,45,18,04,052,,23,05,084,26,27,58,153,*71
$GPGSV,3,3,11,28,07,321,,31,22,165,25,32,66,035,38*4F
$GPGLL,3236.19753,N,05139.34457,E,085951.00,A,A*6B
$GPRMC,085952.00,A,3236.19720,N,05139.34451,E,0.118,,280823,,,A*78
$GPVTG,,T,,M,0.118,N,0.218,K,A*20
$GPGGA,085952.00,3236.19720,N,05139.34451,E,1,05,6.69,1729.1,M,-17.6,M,,*42
$GPGSA,A,3,32,02,10,23,03,,,,,,,,7.23,6.69,2.76*0E
$GPGSV,3,1,11,01,27,319,43,02,46,316,49,03,06,280,35,08,79,282,*7D
$GPGSV,3,2,11,10,36,063,46,18,04,052,,23,05,084,26,27,58,153,*72
$GPGSV,3,3,11,28,07,321,,31,22,165,,32,66,035,38*48
$GPGLL,3236.19720,N,05139.34451,E,085952.00,A,A*6A
$GPRMC,085953.00,A,3236.19701,N,05139.34447,E,0.178,,280823,,,A*7B
$GPVTG,,T,,M,0.178,N,0.330,K,A*2D
$GPGGA,085953.00,3236.19701,N,05139.34447,E,1,05,6.69,1728.9,M,-17.6,M,,*4E
$GPGSA,A,3,32,02,10,23,03,,,,,,,,7.24,6.69,2.77*08
$GPGSV,3,1,11,01,27,319,42,02,46,316,49,03,06,280,34,08,79,282,*7D
$GPGSV,3,2,11,10,36,063,46,18,04,052,,23,05,084,26,27,58,153,*72
$GPGSV,3,3,11,28,07,321,,31,22,165,,32,66,035,38*48
$GPGLL,3236.19701,N,05139.34447,E,085953.00,A,A*6F
$GPRMC,085954.00,A,3236.19682,N,05139.34443,E,0.303,,280823,,,A*7C
$GPVTG,,T,,M,0.303,N,0.562,K,A*22
$GPGGA,085954.00,3236.19682,N,05139.34443,E,1,05,6.70,1728.6,M,-17.6,M,,*40
$GPGSA,A,3,32,02,10,23,03,,,,,,,,7.25,6.70,2.77*01
$GPGSV,3,1,11,01,27,319,43,02,46,316,49,03,06,280,35,08,79,282,*7D
$GPGSV,3,2,11,10,36,063,46,18,04,052,,23,05,084,26,27,58,153,*72
$GPGSV,3,3,11,28,07,321,,31,22,165,,32,66,035,39*49
$GPGLL,3236.19682,N,05139.34443,E,085954.00,A,A*66
$GPRMC,085955.00,A,3236.19656,N,05139.34439,E,0.268,,280823,,,A*75
$GPVTG,,T,,M,0.268,N,0.497,K,A*25
$GPGGA,085955.00,3236.19656,N,05139.34439,E,1,05,6.71,1728.5,M,-17.6,M,,*47
$GPGSA,A,3,32,02,10,23,03,,,,,,,,7.26,6.71,2.77*03
$GPGSV,3,1,11,01,27,319,42,02,46,316,49,03,06,280,34,08,79,282,*7D
$GPGSV,3,2,11,10,36,063,46,18,04,052,,23,05,084,26,27,58,153,*72
$GPGSV,3,3,11,28,07,321,,31,22,165,,32,66,035,38*48
$GPGLL,3236.19656,N,05139.34439,E,085955.00,A,A*63
$GPRMC,085956.00,A,3236.19629,N,05139.34435,E,0.047,,280823,,,A*7D
$GPVTG,,T,,M,0.047,N,0.087,K,A*2F
$GPGGA,085956.00,3236.19629,N,05139.34435,E,1,05,6.72,1728.3,M,-17.6,M,,*45
$GPGSA,A,3,32,02,10,23,03,,,,,,,,7.27,6.72,2.77*01
$GPGSV,3,1,11,01,27,319,42,02,46,316,49,03,06,280,34,08,79,282,*7D
$GPGSV,3,2,11,10,36,063,46,18,04,052,,23,05,084,26,27,58,153,*72
$GPGSV,3,3,11,28,07,321,,31,22,165,,32,66,035,37*47
$GPGLL,3236.19629,N,05139.34435,E,085956.00,A,A*64
$GPRMC,085957.00,A,3236.19605,N,05139.34430,E,0.192,,280823,,,A*7E
$GPVTG,,T,,M,0.192,N,0.355,K,A*2A
$GPGGA,085957.00,3236.19605,N,05139.34430,E,1,05,6.73,1728.2,M,-17.6,M,,*4F
$GPGSA,A,3,32,02,10,23,03,,,,,,,,7.28,6.73,2.78*00
$GPGSV,3,1,11,01,27,319,41,02,46,316,48,03,06,280,35,08,79,282,*7E
$GPGSV,3,2,11,10,36,063,45,18,04,052,,23,05,084,25,27,58,153,*72
$GPGSV,3,3,11,28,07,321,,31,22,165,,32,66,035,36*46
$GPGLL,3236.19605,N,05139.34430,E,085957.00,A,A*6E
$GPRMC,085958.00,A,3236.19572,N,05139.34426,E,0.215,,280823,,,A*79
$GPVTG,,T,,M,0.215,N,0.398,K,A*27
$GPGGA,085958.00,3236.19572,N,05139.34426,E,1,05,6.73,1728.0,M,-17.6,M,,*46
$GPGSA,A,3,32,02,10,23,03,,,,,,,,7.29,6.73,2.78*01
$GPGSV,3,1,11,01,27,319,41,02,46,316,48,03,06,280,35,08,79,282,*7E
$GPGSV,3,2,11,10,36,063,45,18,04,052,,23,05,084,25,27,58,153,*72
$GPGSV,3,3,11,28,07,321,,31,22,165,,32,66,035,37*47
$GPGLL,3236.19572,N,05139.34426,E,085958.00,A,A*65
$GPRMC,085959.00,A,3236.19554,N,05139.34423,E,0.275,,280823,,,A*7F
$GPVTG,,T,,M,0.275,N,0.510,K,A*27
$GPGGA,085959.00,3236.19554,N,05139.34423,E,1,05,6.74,1728.0,M,-17.6,M,,*41
$GPGSA,A,3,32,02,10,23,03,,,,,,,,7.29,6.74,2.78*06
$GPGSV,3,1,11,01,27,319,42,02,46,316,48,03,06,280,35,08,79,282,*7D
$GPGSV,3,2,11,10,36,063,45,18,04,052,,23,05,084,26,27,58,153,*71
$GPGSV,3,3,11,28,07,321,,31,22,165,,32,66,035,37*47
$GPGLL,3236.19554,N,05139.34423,E,085959.00,A,A*65
$GPRMC,090000.00,A,3236.19527,N,05139.34419,E,0.466,185.37,280823,,,A*61
$GPVTG,185.37,T,,M,0.466,N,0.863,K,A*3C
$GPGGA,090000.00,3236.19527,N,05139.34419,E,1,05,6.75,1727.9,M,-17.6,M,,*4A
$GPGSA,A,3,32,02,10,23,03,,,,,,,,7.30,6.75,2.79*0E
$GPGSV,3,1,11,01,27,319,41,02,46,316,48,03,06,280,36,08,79,282,*7D
$GPGSV,3,2,11,10,36,063,45,18,04,052,,23,05,084,26,27,58,153,*71
$GPGSV,3,3,11,28,07,321,,31,22,165,,32,66,035,37*47
$GPGLL,3236.19527,N,05139.34419,E,090000.00,A,A*69
$GPRMC,090001.00,A,3236.19502,N,05139.34415,E,0.553,185.16,280823,,,A*6F
$GPVTG,185.16,T,,M,0.553,N,1.025,K,A*33
$GPGGA,090001.00,3236.19502,N,05139.34415,E,1,05,6.76,1727.8,M,-17.6,M,,*42
$GPGSA,A,3,32,02,10,23,03,,,,,,,,7.31,6.76,2.79*0C
$GPGSV,3,1,11,01,27,319,41,02,46,316,48,03,06,280,37,08,79,282,*7C
$GPGSV,3,2,11,10,36,063,45,18,04,052,,23,05,084,25,27,58,153,*72
$GPGSV,3,3,11,28,07,321,,31,22,165,,32,66,035,37*47
$GPGLL,3236.19502,N,05139.34415,E,090001.00,A,A*63
$GPRMC,090002.00,A,3236.19475,N,05139.34412,E,0.203,,280823,,,A*7D
$GPVTG,,T,,M,0.203,N,0.375,K,A*23
$GPGGA,090002.00,3236.19475,N,05139.34412,E,1,07,6.77,1727.8,M,-17.6,M,,*44
$GPGSA,A,3,32,02,10,31,23,03,28,,,,,,7.32,6.77,2.79*06
$GPGSV,3,1,11,01,27,319,40,02,46,316,47,03,06,280,35,08,79,282,*70
$GPGSV,3,2,11,10,36,063,44,18,04,052,,23,05,084,25,27,58,153,*73
$GPGSV,3,3,11,28,07,321,15,31,22,165,23,32,66,035,35*40
$GPGLL,3236.19475,N,05139.34412,E,090002.00,A,A*66
$GPRMC,090003.00,A,3236.19448,N,05139.34408,E,0.023,,280823,,,A*79
$GPVTG,,T,,M,0.023,N,0.042,K,A*24
$GPGGA,090003.00,3236.19448,N,05139.34408,E,1,06,6.78,1727.7,M,-17.6,M,,*41
$GPGSA,A,3,32,02,10,23,03,28,,,,,,,7.33,6.78,2.80*0C
$GPGSV,3,1,11,01,27,319,41,02,46,316,48,03,06,280,37,08,79,282,*7C
$GPGSV,3,2,11,10,36,063,44,18,04,052,,23,05,084,27,27,58,153,*71
$GPGSV,3,3,11,28,07,321,16,31,22,165,,32,66,035,37*40
$GPGLL,3236.19448,N,05139.34408,E,090003.00,A,A*62
$GPRMC,090004.00,A,3236.19421,N,05139.34404,E,0.024,,280823,,,A*7A
$GPVTG,,T,,M,0.024,N,0.045,K,A*24
$GPGGA,090004.00,3236.19421,N,05139.34404,E,1,06,6.78,1727.7,M,-17.6,M,,*45
$GPGSA,A,3,32,02,10,23,03,28,,,,,,,7.34,6.78,2.80*0B
$GPGSV,3,1,11,01,27,319,42,02,46,316,48,03,06,280,37,08,79,282,*7F
$GPGSV,3,2,11,10,36,063,43,18,04,052,,23,05,084,27,27,58,153,*76
$GPGSV,3,3,11,28,07,321,14,31,22,165,,32,66,035,38*4D
$GPGLL,3236.19421,N,05139.34404,E,090004.00,A,A*66
$GPRMC,090005.00,A,3236.19404,N,05139.34402,E,0.038,,280823,,,A*77
$GPVTG,,T,,M,0.038,N,0.070,K,A*2F
$GPGGA,090005.00,3236.19404,N,05139.34402,E,1,06,6.79,1727.7,M,-17.6,M,,*44
$GPGSA,A,3,32,02,10,23,03,28,,,,,,,7.35,6.79,2.80*0B
$GPGSV,3,1,11,01,27,319,44,02,46,316,49,03,06,280,35,08,79,282,*7A
$GPGSV,3,2,11,10,36,063,44,18,04,052,,23,05,084,28,27,58,153,*7E
$GPGSV,3,3,11,28,07,321,13,31,22,165,,32,66,035,41*44
$GPGLL,3236.19404,N,05139.34402,E,090005.00,A,A*66
$GPRMC,090006.00,A,3236.19379,N,05139.34398,E,0.021,,280823,,,A*75
$GPVTG,,T,,M,0.021,N,0.040,K,A*24
$GPGGA,090006.00,3236.19379,N,05139.34398,E,1,07,6.80,1727.7,M,-17.6,M,,*49
$GPGSA,A,3,32,02,10,31,23,03,28,,,,,,7.36,6.80,2.80*0C
$GPGSV,3,1,11,01,27,319,44,02,46,316,49,03,06,280,39,08,79,282,*76
$GPGSV,3,2,11,10,36,063,45,18,04,052,,23,05,084,28,27,58,153,*7F
$GPGSV,3,3,11,28,07,321,13,31,22,165,25,32,66,035,41*43
$GPGLL,3236.19379,N,05139.34398,E,090006.00,A,A*6C
$GPRMC,090007.00,A,3236.19364,N,05139.34396,E,0.009,,280823,,,A*7C
$GPVTG,,T,,M,0.009,N,0.017,K,A*2C
$GPGGA,090007.00,3236.19364,N,05139.34396,E,1,06,6.81,1727.7,M,-17.6,M,,*4A
$GPGSA,A,3,32,02,10,31,23,03,,,,,,,7.36,6.81,2.81*06
$GPGSV,3,1,11,01,27,319,44,02,46,316,48,03,06,280,39,08,79,282,25*70
$GPGSV,3,2,11,10,36,063,45,18,04,052,,23,05,084,27,27,58,153,*70
$GPGSV,3,3,11,28,07,321,,31,22,165,26,32,66,035,39*4D
$GPGLL,3236.19364,N,05139.34396,E,090007.00,A,A*6F
$GPRMC,090008.00,A,3236.19346,N,05139.34394,E,0.022,,280823,,,A*78
$GPVTG,,T,,M,0.022,N,0.041,K,A*26
$GPGGA,090008.00,3236.19346,N,05139.34394,E,1,06,6.82,1727.7,M,-17.6,M,,*44
$GPGSA,A,3,27,32,02,10,23,03,,,,,,,7.37,6.82,2.81*03
$GPGSV,3,1,11,01,27,319,41,02,46,316,48,03,06,280,39,08,79,282,*72
$GPGSV,3,2,11,10,36,063,45,18,04,052,,23,05,084,25,27,58,153,10*73
$GPGSV,3,3,11,28,07,321,,31,22,165,,32,66,035,40*47
$GPGLL,3236.19346,N,05139.34394,E,090008.00,A,A*62
$GPRMC,090009.00,A,3236.19326,N,05139.34392,E,0.104,,280823,,,A*7C
$GPVTG,,T,,M,0.104,N,0.192,K,A*2C
$GPGGA,090009.00,3236.19326,N,05139.34392,E,1,05,6.83,1727.7,M,-17.6,M,,*47
$GPGSA,A,3,32,02,10,23,03,,,,,,,,7.38,6.83,2.81*08
$GPGSV,3,1,11,01,27,319,42,02,46,316,48,03,06,280,40,08,79,282,*7F
$GPGSV,3,2,11,10,36,063,45,18,04,052,11,23,05,084,25,27,58,153,11*72
$GPGSV,3,3,11,28,07,321,,31,22,165,,32,66,035,40*47
$GPGLL,3236.19326,N,05139.34392,E,090009.00,A,A*63
$GPRMC,090010.00,A,3236.19306,N,05139.34391,E,0.181,,280823,,,A*78
$GPVTG,,T,,M,0.181,N,0.336,K,A*2D
$GPGGA,090010.00,3236.19306,N,05139.34391,E,1,05,6.83,1727.7,M,-17.6,M,,*4E
$GPGSA,A,3,32,02,10,23,03,,,,,,,,7.39,6.83,2.82*0A
$GPGSV,3,1,11,01,27,319,43,02,46,316,49,03,06,280,38,08,79,282,*70
$GPGSV,3,2,11,10,36,063,45,18,04,052,10,23,05,084,25,27,58,153,*73
$GPGSV,3,3,11,28,07,321,,31,22,165,,32,66,035,41*46
$GPGLL,3236.19306,N,05139.34391,E,090010.00,A,A*6A
$GPRMC,090011.00,A,3236.19388,N,05139.34398,E,0.042,,280823,,,A*78
$GPVTG,,T,,M,0.042,N,0.079,K,A*2B
$GPGGA,090011.00,3236.19388,N,05139.34398,E,1,06,1.14,1727.3,M,-17.6,M,,*4E
$GPGSA,A,3,32,02,10,31,23,03,,,,,,,1.84,1.14,1.45*09
$GPGSV,3,1,11,01,27,319,43,02,46,316,48,03,06,280,38,08,79,282,*71
$GPGSV,3,2,11,10,36,063,45,18,04,052,,23,05,084,26,27,58,153,*71
$GPGSV,3,3,11,28,07,321,,31,22,165,27,32,66,035,41*43
$GPGLL,3236.19388,N,05139.34398,E,090011.00,A,A*64
$GPRMC,090012.00,A,3236.19458,N,05139.34403,E,0.130,,280823,,,A*70
$GPVTG,,T,,M,0.130,N,0.241,K,A*26
$GPGGA,090012.00,3236.19458,N,05139.34403,E,1,06,1.14,1727.0,M,-17.6,M,,*41
$GPGSA,A,3,32,02,10,31,23,03,,,,,,,1.84,1.14,1.45*09
$GPGSV,3,1,11,01,27,319,44,02,46,316,47,03,06,280,34,08,79,282,*75
$GPGSV,3,2,11,10,36,063,44,18,04,052,,23,05,084,27,27,58,153,*71
$GPGSV,3,3,11,28,07,321,,31,22,165,26,32,66,035,37*43
$GPGLL,3236.19458,N,05139.34403,E,090012.00,A,A*68
$GPRMC,090013.00,A,3236.19488,N,05139.34407,E,0.076,,280823,,,A*7B
$GPVTG,,T,,M,0.076,N,0.141,K,A*26
$GPGGA,090013.00,3236.19488,N,05139.34407,E,1,06,1.14,1726.8,M,-17.6,M,,*40
$GPGSA,A,3,32,02,10,31,23,03,,,,,,,1.84,1.14,1.45*09
$GPGSV,3,1,11,01,27,319,41,02,46,316,46,03,06,280,34,08,79,282,*71
$GPGSV,3,2,11,10,36,063,47,18,04,052,,23,05,084,27,27,58,153,*72
$GPGSV,3,3,11,28,07,321,,31,22,165,26,32,66,035,40*43
$GPGLL,3236.19488,N,05139.34407,E,090013.00,A,A*60
$GPRMC,090014.00,A,3236.19496,N,05139.34408,E,0.801,185.53,280823,,,A*60
$GPVTG,185.53,T,,M,0.801,N,1.483,K,A*30
$GPGGA,090014.00,3236.19496,N,05139.34408,E,1,06,1.14,1726.8,M,-17.6,M,,*47
$GPGSA,A,3,32,02,10,31,23,03,,,,,,,1.84,1.14,1.45*09
$GPGSV,3,1,11,01,27,319,42,02,46,316,46,03,06,280,34,08,79,282,*72
$GPGSV,3,2,11,10,36,063,47,18,04,052,,23,05,084,26,27,58,153,*73
$GPGSV,3,3,11,28,07,321,,31,22,165,26,32,66,035,39*4D
$GPGLL,3236.19496,N,05139.34408,E,090014.00,A,A*67
$GPRMC,090015.00,A,3236.19494,N,05139.34408,E,0.220,,280823,,,A*7E
$GPVTG,,T,,M,0.220,N,0.407,K,A*20
$GPGGA,090015.00,3236.19494,N,05139.34408,E,1,06,1.14,1726.7,M,-17.6,M,,*4B
$GPGSA,A,3,32,02,10,31,23,03,,,,,,,1.84,1.14,1.45*09
$GPGSV,3,1,11,01,27,319,45,02,46,316,48,03,06,280,31,08,79,282,*7E
$GPGSV,3,2,11,10,36,063,47,18,04,052,,23,05,084,25,27,58,153,*70
$GPGSV,3,3,11,28,07,321,,31,22,165,25,32,66,035,40*40
$GPGLL,3236.19494,N,05139.34408,E,090015.00,A,A*64
$GPRMC,090016.00,A,3236.19514,N,05139.34410,E,0.173,,280823,,,A*78
$GPVTG,,T,,M,0.173,N,0.320,K,A*27
$GPGGA,090016.00,3236.19514,N,05139.34410,E,1,06,1.14,1726.6,M,-17.6,M,,*49
$GPGSA,A,3,32,02,10,31,23,03,,,,,,,1.84,1.14,1.45*09
$GPGSV,3,1,11,01,27,319,45,02,46,316,46,03,06,280,31,08,79,282,*70
$GPGSV,3,2,11,10,36,063,46,18,04,052,,23,05,084,25,27,58,153,*71
$GPGSV,3,3,11,28,07,321,,31,22,165,24,32,66,035,39*4F
$GPGLL,3236.19514,N,05139.34410,E,090016.00,A,A*67
$GPRMC,090017.00,A,3236.19534,N,05139.34412,E,0.494,235.25,280823,,,A*68
$GPVTG,235.25,T,,M,0.494,N,0.914,K,A*3B
$GPGGA,090017.00,3236.19534,N,05139.34412,E,1,06,1.14,1726.6,M,-17.6,M,,*48
$GPGSA,A,3,32,02,10,31,23,03,,,,,,,1.84,1.14,1.45*09
$GPGSV,3,1,11,01,27,319,45,02,46,316,48,03,06,280,32,08,79,282,*7D
$GPGSV,3,2,11,10,36,063,47,18,04,052,,23,05,084,26,27,58,153,*73
$GPGSV,3,3,11,28,07,321,,31,22,165,24,32,66,035,41*40
$GPGLL,3236.19534,N,05139.34412,E,090017.00,A,A*66
$GPRMC,090018.00,A,3236.19561,N,05139.34414,E,0.029,,280823,,,A*7E
$GPVTG,,T,,M,0.029,N,0.055,K,A*28
$GPGGA,090018.00,3236.19561,N,05139.34414,E,1,07,1.14,1726.4,M,-17.6,M,,*42
$GPGSA,A,3,27,32,02,10,31,23,03,,,,,,1.84,1.14,1.45*0C
$GPGSV,3,1,11,01,27,319,46,02,46,316,47,03,06,280,33,08,79,282,*70
$GPGSV,3,2,11,10,36,063,45,18,04,052,,23,05,084,26,27,58,153,12*72
$GPGSV,3,3,11,28,07,321,,31,22,165,25,32,66,035,42*42
$GPGLL,3236.19561,N,05139.34414,E,090018.00,A,A*6F
$GPRMC,090019.00,A,3236.19589,N,05139.34417,E,0.021,,280823,,,A*72
$GPVTG,,T,,M,0.021,N,0.040,K,A*24
$GPGGA,090019.00,3236.19589,N,05139.34417,E,1,06,1.14,1726.1,M,-17.6,M,,*42
$GPGSA,A,3,32,02,10,31,23,03,,,,,,,1.84,1.14,1.45*09
$GPGSV,3,1,11,01,27,319,45,02,46,316,46,03,06,280,32,08,79,282,*73
$GPGSV,3,2,11,10,36,063,46,18,04,052,,23,05,084,25,27,58,153,09*78
$GPGSV,3,3,11,28,07,321,,31,22,165,25,32,66,035,41*41
$GPGLL,3236.19589,N,05139.34417,E,090019.00,A,A*6B
$GPRMC,090020.00,A,3236.19583,N,05139.34416,E,0.131,,280823,,,A*73
$GPVTG,,T,,M,0.131,N,0.243,K,A*25
$GPGGA,090020.00,3236.19583,N,05139.34416,E,1,06,6.92,1725.9,M,-17.6,M,,*41
$GPGSA,A,3,32,02,10,31,23,03,,,,,,,7.48,6.92,2.85*09
$GPGSV,3,1,11,01,27,319,43,02,46,316,48,03,06,280,35,08,79,282,*7C
$GPGSV,3,2,11,10,36,063,42,18,04,052,,23,05,084,26,27,58,153,08*7E
$GPGSV,3,3,11,28,07,321,,31,22,165,27,32,66,035,40*42
$GPGLL,3236.19583,N,05139.34416,E,090020.00,A,A*6A
$GPRMC,090021.00,A,3236.19620,N,05139.34419,E,0.052,,280823,,,A*73
$GPVTG,,T,,M,0.052,N,0.096,K,A*2B
$GPGGA,090021.00,3236.19620,N,05139.34419,E,1,06,1.14,1725.7,M,-17.6,M,,*42
$GPGSA,A,3,32,02,10,31,23,03,,,,,,,1.84,1.14,1.45*09
$GPGSV,3,1,11,01,27,319,44,02,46,316,47,03,06,280,35,08,79,282,*74
$GPGSV,3,2,11,10,36,063,43,18,04,052,,23,05,084,25,27,58,153,07*73
$GPGSV,3,3,11,28,07,321,,31,22,165,27,32,66,035,42*40
$GPGLL,3236.19620,N,05139.34419,E,090021.00,A,A*6E
$GPRMC,090022.00,A,3236.19656,N,05139.34421,E,0.081,,280823,,,A*74
$GPVTG,,T,,M,0.081,N,0.150,K,A*2E
$GPGGA,090022.00,3236.19656,N,05139.34421,E,1,06,1.14,1725.3,M,-17.6,M,,*4F
$GPGSA,A,3,32,02,10,31,23,03,,,,,,,1.84,1.14,1.45*09
$GPGSV,3,1,11,01,27,319,43,02,46,316,46,03,06,280,37,08,79,282,*70
$GPGSV,3,2,11,10,36,063,43,18,04,052,,23,05,084,24,27,58,153,*75
$GPGSV,3,3,11,28,07,321,,31,22,165,27,32,66,035,42*40
$GPGLL,3236.19656,N,05139.34421,E,090022.00,A,A*67
$GPRMC,090023.00,A,3236.19700,N,05139.34425,E,0.111,,280823,,,A*7B
$GPVTG,,T,,M,0.111,N,0.206,K,A*26
$GPGGA,090023.00,3236.19700,N,05139.34425,E,1,06,1.14,1725.0,M,-17.6,M,,*4B
$GPGSA,A,3,32,02,10,31,23,03,,,,,,,1.84,1.14,1.45*09
$GPGSV,3,1,11,01,27,319,42,02,46,316,47,03,06,280,39,08,79,282,*7E
$GPGSV,3,2,11,10,36,063,43,18,04,052,,23,05,084,25,27,58,153,*74
$GPGSV,3,3,11,28,07,321,,31,22,165,26,32,66,035,42*41
$GPGLL,3236.19700,N,05139.34425,E,090023.00,A,A*60
$GPRMC,090024.00,A,3236.19734,N,05139.34428,E,0.146,,280823,,,A*74
$GPVTG,,T,,M,0.146,N,0.270,K,A*25
$GPGGA,090024.00,3236.19734,N,05139.34428,E,1,06,1.14,1724.8,M,-17.6,M,,*4F
$GPGSA,A,3,32,02,10,31,23,03,,,,,,,1.84,1.14,1.45*09
$GPGSV,3,1,11,01,27,319,43,02,46,316,46,03,06,280,38,08,79,282,*7F
$GPGSV,3,2,11,10,36,063,43,18,04,052,,23,05,084,23,27,58,153,*72
$GPGSV,3,3,11,28,07,321,,31,22,165,26,32,66,035,41*42
$GPGLL,3236.19734,N,05139.34428,E,090024.00,A,A*6D
$GPRMC,090025.00,A,3236.19752,N,05139.34432,E,0.055,,280823,,,A*7D
$GPVTG,,T,,M,0.055,N,0.102,K,A*20
$GPGGA,090025.00,3236.19752,N,05139.34432,E,1,06,1.14,1724.7,M,-17.6,M,,*4A
$GPGSA,A,3,32,02,10,31,23,03,,,,,,,1.84,1.14,1.45*09
$GPGSV,3,1,11,01,27,319,43,02,46,316,46,03,06,280,34,08,79,282,*73
$GPGSV,3,2,11,10,36,063,41,18,04,052,,23,05,084,23,27,58,153,*70
$GPGSV,3,3,11,28,07,321,,31,22,165,25,32,66,035,41*41
$GPGLL,3236.19752,N,05139.34432,E,090025.00,A,A*67
$GPRMC,090026.00,A,3236.19779,N,05139.34436,E,0.028,,280823,,,A*79
$GPVTG,,T,,M,0.028,N,0.052,K,A*2E
$GPGGA,090026.00,3236.19779,N,05139.34436,E,1,06,1.14,1724.6,M,-17.6,M,,*45
$GPGSA,A,3,32,02,10,31,23,03,,,,,,,1.84,1.14,1.45*09
$GPGSV,3,1,11,01,27,319,43,02,46,316,46,03,06,281,34,08,79,282,*72
$GPGSV,3,2,11,10,36,063,40,18,04,052,,23,05,084,21,27,58,153,*73
$GPGSV,3,3,11,28,07,321,,31,22,165,25,32,66,035,38*4F
$GPGLL,3236.19779,N,05139.34436,E,090026.00,A,A*69
$GPRMC,090027.00,A,3236.19802,N,05139.34438,E,0.041,,280823,,,A*7A
$GPVTG,,T,,M,0.041,N,0.076,K,A*27
$GPGGA,090027.00,3236.19802,N,05139.34438,E,1,06,1.14,1724.4,M,-17.6,M,,*4B
$GPGSA,A,3,32,02,10,31,23,03,,,,,,,1.84,1.14,1.45*09
$GPGSV,3,1,11,01,27,319,43,02,46,316,46,03,06,281,34,08,79,282,*72
$GPGSV,3,2,11,10,36,063,41,18,04,052,,23,05,084,21,27,58,153,*72
$GPGSV,3,3,11,28,07,321,,31,22,165,25,32,66,035,41*41
$GPGLL,3236.19802,N,05139.34438,E,090027.00,A,A*65
$GPRMC,090028.00,A,3236.19833,N,05139.34441,E,0.092,,280823,,,A*77
$GPVTG,,T,,M,0.092,N,0.171,K,A*2F
$GPGGA,090028.00,3236.19833,N,05139.34441,E,1,06,1.14,1724.2,M,-17.6,M,,*4E
$GPGSA,A,3,32,02,10,31,23,03,,,,,,,1.84,1.14,1.45*09
$GPGSV,3,1,11,01,27,319,42,02,46,316,45,03,06,281,35,08,79,282,*71
$GPGSV,3,2,11,10,36,063,38,18,04,052,,23,05,084,19,27,58,153,*77
$GPGSV,3,3,11,28,07,321,,31,22,165,25,32,66,035,39*4E
$GPGLL,3236.19833,N,05139.34441,E,090028.00,A,A*66
$GPRMC,090029.00,A,3236.19855,N,05139.34442,E,0.051,,280823,,,A*7A
$GPVTG,,T,,M,0.051,N,0.095,K,A*2B
$GPGGA,090029.00,3236.19855,N,05139.34442,E,1,06,1.14,1724.1,M,-17.6,M,,*4F
$GPGSA,A,3,32,02,10,31,23,03,,,,,,,1.84,1.14,1.45*09
$GPGSV,3,1,11,01,27,319,43,02,46,316,47,03,06,281,35,08,79,282,*72
$GPGSV,3,2,11,10,36,063,41,18,04,052,,23,05,084,18,27,58,153,*78
$GPGSV,3,3,11,28,07,321,,31,22,165,25,32,66,035,42*42
$GPGLL,3236.19855,N,05139.34442,E,090029.00,A,A*64
$GPRMC,090030.00,A,3236.19877,N,05139.34444,E,0.046,,280823,,,A*72
$GPVTG,,T,,M,0.046,N,0.084,K,A*2D
$GPGGA,090030.00,3236.19877,N,05139.34444,E,1,06,1.14,1723.9,M,-17.6,M,,*4E
$GPGSA,A,3,32,02,10,31,23,03,,,,,,,1.84,1.14,1.45*09
$GPGSV,3,1,11,01,27,319,44,02,46,316,47,03,06,281,35,08,79,282,*75
$GPGSV,3,2,11,10,36,063,41,18,04,052,,23,05,084,18,27,58,153,*78
$GPGSV,3,3,11,28,07,321,,31,22,165,25,32,66,035,41*41
$GPGLL,3236.19877,N,05139.34444,E,090030.00,A,A*6A
$GPRMC,090031.00,A,3236.19895,N,05139.34446,E,0.042,,280823,,,A*79
$GPVTG,,T,,M,0.042,N,0.077,K,A*25
$GPGGA,090031.00,3236.19895,N,05139.34446,E,1,06,1.14,1723.7,M,-17.6,M,,*4F
$GPGSA,A,3,32,02,10,31,23,03,,,,,,,1.84,1.14,1.45*09
$GPGSV,3,1,11,01,27,319,44,02,46,316,46,03,06,281,36,08,79,279,*73
$GPGSV,3,2,11,10,36,063,42,18,04,052,,23,05,084,19,27,58,153,*7A
$GPGSV,3,3,11,28,07,321,,31,22,165,25,32,66,035,40*40
$GPGLL,3236.19895,N,05139.34446,E,090031.00,A,A*65
$GPRMC,090032.00,A,3236.19911,N,05139.34446,E,0.065,,280823,,,A*72
$GPVTG,,T,,M,0.065,N,0.120,K,A*23
$GPGGA,090032.00,3236.19911,N,05139.34446,E,1,06,1.14,1723.6,M,-17.6,M,,*40
$GPGSA,A,3,32,02,10,31,23,03,,,,,,,1.84,1.14,1.45*09
$GPGSV,3,1,11,01,27,319,43,02,46,316,45,03,06,281,38,08,79,279,*79
$GPGSV,3,2,11,10,36,063,43,18,04,052,,23,05,084,19,27,58,153,*7B
$GPGSV,3,3,11,28,07,321,,31,22,165,25,32,66,035,40*40
$GPGLL,3236.19911,N,05139.34446,E,090032.00,A,A*6B
$GPRMC,090033.00,A,3236.19927,N,05139.34445,E,0.310,,280823,,,A*74
$GPVTG,,T,,M,0.310,N,0.573,K,A*20
$GPGGA,090033.00,3236.19927,N,05139.34445,E,1,06,1.14,1723.7,M,-17.6,M,,*46
$GPGSA,A,3,32,02,10,31,23,03,,,,,,,1.84,1.14,1.45*09
$GPGSV,3,1,11,01,27,319,45,02,46,316,46,03,06,281,32,08,79,279,*76
$GPGSV,3,2,11,10,36,064,43,18,04,052,,23,05,084,20,27,58,153,*76
$GPGSV,3,3,11,28,07,321,,31,22,165,25,32,66,035,41*41
$GPGLL,3236.19927,N,05139.34445,E,090033.00,A,A*6C
$GPRMC,090034.00,A,3236.19944,N,05139.34446,E,0.500,292.15,280823,,,A*61
$GPVTG,292.15,T,,M,0.500,N,0.926,K,A*38
$GPGGA,090034.00,3236.19944,N,05139.34446,E,1,06,1.14,1723.5,M,-17.6,M,,*45
$GPGSA,A,3,32,02,10,31,23,03,,,,,,,1.84,1.14,1.45*09
$GPGSV,3,1,11,01,27,319,45,02,46,316,48,03,06,281,33,08,79,279,*79
$GPGSV,3,2,11,10,36,064,42,18,04,052,,23,05,084,22,27,58,153,*75
$GPGSV,3,3,11,28,07,321,,31,22,165,24,32,66,035,41*40
