V,4,2,13,10,34,066,45,18,02,053,35,23,04,086,34,27,55,154,34*7F
$GPGSV,4,3,13,28,08,319,,31,24,164,,32,63,035,46,33,11,257,31*70
$GPGSV,4,4,13,39,42,223,29*4F
$GPGLL,3236.19628,N,05139.34425,E,090543.00,A,A*68
$GPRMC,090544.00,A,3236.19611,N,05139.34423,E,0.081,,280823,,,A*70
$GPVTG,,T,,M,0.081,N,0.149,K,A*26
$GPGGA,090544.00,3236.19611,N,05139.34423,E,1,06,12.18,1722.6,M,-17.6,M,,*77
$GPGSA,A,3,27,32,02,10,03,08,,,,,,,12.99,12.18,4.51*07
$GPGSV,4,1,13,01,29,319,43,02,48,315,44,03,07,282,34,08,80,266,34*7F
$GPGSV,4,2,13,10,34,066,42,18,02,053,34,23,04,086,34,27,55,154,33*7E
$GPGSV,4,3,13,28,08,319,,31,24,164,,32,63,035,43,33,11,257,31*75
$GPGSV,4,4,13,39,42,223,29*4F
$GPGLL,3236.19611,N,05139.34423,E,090544.00,A,A*63
$GPRMC,090545.00,A,3236.19599,N,05139.34421,E,0.051,,280823,,,A*7D
$GPVTG,,T,,M,0.051,N,0.094,K,A*2A
$GPGGA,090545.00,3236.19599,N,05139.34421,E,1,04,12.21,1722.6,M,-17.6,M,,*7F
$GPGSA,A,3,32,02,10,03,,,,,,,,,13.02,12.21,4.52*00
$GPGSV,4,1,13,01,29,319,42,02,48,315,43,03,07,282,34,08,80,266,*7E
$GPGSV,4,2,13,10,34,066,41,18,02,053,34,23,04,086,33,27,55,154,*7A
$GPGSV,4,3,13,28,08,319,,31,24,164,,32,63,035,42,33,11,257,30*75
$GPGSV,4,4,13,39,42,223,28*4E
$GPGLL,3236.19599,N,05139.34421,E,090545.00,A,A*63
$GPRMC,090546.00,A,3236.19582,N,05139.34419,E,0.066,,280823,,,A*7B
$GPVTG,,T,,M,0.066,N,0.123,K,A*23
$GPGGA,090546.00,3236.19582,N,05139.34419,E,1,05,12.24,1722.6,M,-17.6,M,,*79
$GPGSA,A,3,32,02,10,03,08,,,,,,,,13.05,12.24,4.53*0B
$GPGSV,4,1,13,01,29,319,43,02,48,315,45,03,07,282,35,08,80,266,33*78
$GPGSV,4,2,13,10,34,066,42,18,02,053,34,23,04,086,32,27,55,154,*78
$GPGSV,4,3,13,28,08,319,,31,24,164,,32,63,035,43,33,11,257,30*74
$GPGSV,4,4,13,39,42,223,29*4F
$GPGLL,3236.19582,N,05139.34419,E,090546.00,A,A*61
$GPRMC,090547.00,A,3236.19565,N,05139.34417,E,0.008,,280823,,,A*75
$GPVTG,,T,,M,0.008,N,0.015,K,A*2F
$GPGGA,090547.00,3236.19565,N,05139.34417,E,1,04,12.27,1722.7,M,-17.6,M,,*7C
$GPGSA,A,3,32,02,10,03,,,,,,,,,13.08,12.27,4.54*0A
$GPGSV,4,1,13,01,29,319,46,02,48,315,48,03,07,282,39,08,80,266,*7C
$GPGSV,4,2,13,10,34,066,45,18,02,053,37,23,04,086,35,27,55,154,*7B
$GPGSV,4,3,13,28,08,319,,31,24,164,,32,63,035,46,33,11,257,31*70
$GPGSV,4,4,13,39,42,223,29*4F
$GPGLL,3236.19565,N,05139.34417,E,090547.00,A,A*67
$GPRMC,090548.00,A,3236.19550,N,05139.34416,E,0.031,,280823,,,A*77
$GPVTG,,T,,M,0.031,N,0.057,K,A*23
$GPGGA,090548.00,3236.19550,N,05139.34416,E,1,04,12.29,1722.7,M,-17.6,M,,*7A
$GPGSA,A,3,32,02,10,03,,,,,,,,,13.11,12.29,4.54*0C
$GPGSV,4,1,13,01,29,319,43,02,48,315,45,03,07,282,38,08,80,266,*75
$GPGSV,4,2,13,10,34,066,42,18,02,053,34,23,04,086,34,27,55,154,*7E
$GPGSV,4,3,13,28,08,319,,31,24,164,,32,63,035,43,33,11,257,30*74
$GPGSV,4,4,13,39,42,223,29*4F
$GPGLL,3236.19550,N,05139.34416,E,090548.00,A,A*6F
$GPRMC,090549.00,A,3236.19538,N,05139.34414,E,0.057,,280823,,,A*7A
$GPVTG,,T,,M,0.057,N,0.106,K,A*26
$GPGGA,090549.00,3236.19538,N,05139.34414,E,1,07,12.32,1722.7,M,-17.6,M,,*7E
$GPGSA,A,3,27,32,02,10,31,03,28,,,,,,13.14,12.32,4.55*0F
$GPGSV,3,1,11,01,29,319,41,02,48,315,42,03,07,282,33,08,80,266,*7E
$GPGSV,3,2,11,10,34,066,40,18,02,053,30,23,04,086,30,27,55,154,32*78
$GPGSV,3,3,11,28,08,319,32,31,24,164,20,32,63,035,41*43
$GPGLL,3236.19538,N,05139.34414,E,090549.00,A,A*62
$GPRMC,090550.00,V,,,,,,,280823,,,N*77
$GPVTG,,,,,,,,,N*30
$GPGGA,090550.00,,,,,0,00,99.99,,,,,,*6F
$GPGSA,A,1,,,,,,,,,,,,,99.99,99.99,99.99*30
$GPGSV,4,1,13,01,29,319,24,02,48,315,30,03,07,282,23,08,80,266,25*7B
$GPGSV,4,2,13,10,34,066,28,18,02,053,23,23,04,086,23,27,55,154,26*76
$GPGSV,4,3,13,28,08,319,46,31,24,164,27,32,63,035,28,37,40,227,27*7F
$GPGSV,4,4,13,39,42,223,28*4E
$GPGLL,,,,,090550.00,V,N*43
$GPRMC,090551.00,V,,,,,,,280823,,,N*76
$GPVTG,,,,,,,,,N*30
$GPGGA,090551.00,,,,,0,00,99.99,,,,,,*6E
$GPGSA,A,1,,,,,,,,,,,,,99.99,99.99,99.99*30
$GPGSV,3,1,12,01,29,319,28,02,48,315,28,03,07,282,46,08,80,266,51*78
$GPGSV,3,2,12,10,34,066,48,18,02,053,49,23,04,086,,27,55,154,47*7C
$GPGSV,3,3,12,28,08,319,45,31,24,164,26,32,63,035,46,33,11,257,30*72
$GPGLL,,,,,090551.00,V,N*42
$GPRMC,090552.00,V,,,,,,,280823,,,N*75
$GPVTG,,,,,,,,,N*30
$GPGGA,090552.00,,,,,0,00,99.99,,,,,,*6D
$GPGSA,A,1,,,,,,,,,,,,,99.99,99.99,99.99*30
$GPGSV,3,1,12,01,29,319,,02,48,315,27,03,07,282,48,08,80,266,49*7A
$GPGSV,3,2,12,10,34,066,45,18,02,053,47,23,04,086,24,27,55,154,46*78
$GPGSV,3,3,12,28,08,319,44,31,24,164,25,32,63,035,49,33,11,257,26*78
$GPGLL,,,,,090552.00,V,N*41
$GPRMC,090553.00,V,,,,,,,280823,,,N*74
$GPVTG,,,,,,,,,N*30
$GPGGA,090553.00,,,,,0,00,99.99,,,,,,*6C
$GPGSA,A,1,,,,,,,,,,,,,99.99,99.99,99.99*30
$GPGSV,3,1,12,01,29,319,47,02,48,315,,03,07,282,49,08,80,266,50*75
$GPGSV,3,2,12,10,34,066,47,18,02,053,48,23,04,086,21,27,55,154,44*72
$GPGSV,3,3,12,28,08,319,49,31,24,164,24,32,63,035,50,33,11,257,30*7B
$GPGLL,,,,,090553.00,V,N*40
$GPRMC,090554.00,V,,,,,,,280823,,,N*73
$GPVTG,,,,,,,,,N*30
$GPGGA,090554.00,,,,,0,00,99.99,,,,,,*6B
$GPGSA,A,1,,,,,,,,,,,,,99.99,99.99,99.99*30
$GPGSV,3,1,12,01,29,319,,02,48,315,31,03,07,282,46,08,80,266,48*72
$GPGSV,3,2,12,10,34,066,47,18,02,053,45,23,04,086,,27,55,154,44*7C
$GPGSV,3,3,12,28,08,319,46,31,24,164,,32,63,035,47,33,11,257,27*72
$GPGLL,,,,,090554.00,V,N*47
$GPRMC,090555.00,V,,,,,,,280823,,,N*72
$GPVTG,,,,,,,,,N*30
$GPGGA,090555.00,,,,,0,00,99.99,,,,,,*6A
$GPGSA,A,1,,,,,,,,,,,,,99.99,99.99,99.99*30
$GPGSV,4,1,13,01,29,319,46,02,48,315,33,03,07,282,46,08,80,266,48*74
$GPGSV,4,2,13,10,34,066,46,18,02,053,45,23,04,086,,27,55,154,46*79
$GPGSV,4,3,13,28,08,319,45,31,24,164,,32,63,035,47,33,11,257,27*77
$GPGSV,4,4,13,37,40,227,32*4D
$GPGLL,,,,,090555.00,V,N*46
$GPRMC,090556.00,V,,,,,,,280823,,,N*71
$GPVTG,,,,,,,,,N*30
$GPGGA,090556.00,,,,,0,00,99.99,,,,,,*69
$GPGSA,A,1,,,,,,,,,,,,,99.99,99.99,99.99*30
$GPGSV,3,1,11,01,29,319,48,02,48,315,36,03,07,282,50,08,80,266,52*76
$GPGSV,3,2,11,10,34,066,51,18,02,053,50,23,04,086,,27,55,154,50*79
$GPGSV,3,3,11,28,08,319,50,31,24,164,,32,63,035,51*44
$GPGLL,,,,,090556.00,V,N*45
$GPRMC,090557.00,V,,,,,,,280823,,,N*70
$GPVTG,,,,,,,,,N*30
$GPGGA,090557.00,,,,,0,00,99.99,,,,,,*68
$GPGSA,A,1,,,,,,,,,,,,,99.99,99.99,99.99*30
$GPGSV,3,1,11,01,29,319,45,02,48,315,31,03,07,282,47,08,80,266,49*70
$GPGSV,3,2,11,10,34,066,48,18,02,053,47,23,04,086,,27,55,154,48*7E
$GPGSV,3,3,11,28,08,319,47,31,24,164,,32,63,035,48*4A
$GPGLL,,,,,090557.00,V,N*44
$GPRMC,090558.00,V,,,,,,,280823,,,N*7F
$GPVTG,,,,,,,,,N*30
$GPGGA,090558.00,,,,,0,00,99.99,,,,,,*67
$GPGSA,A,1,,,,,,,,,,,,,99.99,99.99,99.99*30
$GPGSV,3,1,11,01,29,319,47,02,48,315,32,03,07,282,49,08,80,266,50*77
$GPGSV,3,2,11,10,34,066,49,18,02,053,48,23,04,086,,27,55,154,49*71
$GPGSV,3,3,11,28,08,319,48,31,24,164,,32,63,035,50*4C
$GPGLL,,,,,090558.00,V,N*4B
$GPRMC,090559.00,V,,,,,,,280823,,,N*7E
$GPVTG,,,,,,,,,N*30
$GPGGA,090559.00,,,,,0,00,99.99,,,,,,*66
$GPGSA,A,1,,,,,,,,,,,,,99.99,99.99,99.99*30
$GPGSV,3,1,11,01,29,319,41,02,48,315,32,03,07,282,46,08,80,266,47*78
$GPGSV,3,2,11,10,34,066,47,18,02,053,46,23,04,086,,27,55,154,48*70
$GPGSV,3,3,11,28,08,319,46,31,24,164,,32,63,035,47*44
$GPGLL,,,,,090559.00,V,N*4A
$GPRMC,090600.00,V,,,,,,,280823,,,N*71
$GPVTG,,,,,,,,,N*30
$GPGGA,090600.00,,,,,0,00,99.99,,,,,,*69
$GPGSA,A,1,,,,,,,,,,,,,99.99,99.99,99.99*30
$GPGSV,3,1,11,01,29,319,36,02,48,315,35,03,07,282,45,08,80,266,46*7D
$GPGSV,3,2,11,10,34,066,46,18,02,053,45,23,04,086,,27,55,154,47*7D
$GPGSV,3,3,11,28,08,319,45,31,24,164,,32,63,035,46*46
$GPGLL,,,,,090600.00,V,N*45
$GPRMC,090601.00,V,,,,,,,280823,,,N*70
$GPVTG,,,,,,,,,N*30
$GPGGA,090601.00,,,,,0,00,99.99,,,,,,*68
$GPGSA,A,1,,,,,,,,,,,,,99.99,99.99,99.99*30
$GPGSV,3,1,11,01,29,319,48,02,48,315,31,03,07,282,48,08,80,266,49*72
$GPGSV,3,2,11,10,34,066,48,18,02,053,47,23,04,086,,27,55,154,49*7F
$GPGSV,3,3,11,28,08,319,47,31,24,164,,32,63,035,48*4A
$GPGLL,,,,,090601.00,V,N*44
$GPRMC,090602.00,V,,,,,,,280823,,,N*73
$GPVTG,,,,,,,,,N*30
$GPGGA,090602.00,,,,,0,00,99.99,,,,,,*6B
$GPGSA,A,1,,,,,,,,,,,,,99.99,99.99,99.99*30
$GPGSV,3,1,11,01,29,319,50,02,48,315,35,03,07,282,50,08,80,266,51*7F
$GPGSV,3,2,11,10,34,066,50,18,02,053,49,23,04,086,,27,55,154,51*71
$GPGSV,3,3,11,28,08,319,49,31,24,164,,32,63,035,51*4C
$GPGLL,,,,,090602.00,V,N*47
$GPRMC,090603.00,V,,,,,,,280823,,,N*72
$GPVTG,,,,,,,,,N*30
$GPGGA,090603.00,,,,,0,00,99.99,,,,,,*6A
$GPGSA,A,1,,,,,,,,,,,,,99.99,99.99,99.99*30
$GPGSV,3,1,11,01,29,319,46,02,48,315,39,03,07,282,45,08,80,266,47*77
$GPGSV,3,2,11,10,34,066,46,18,02,053,45,23,04,086,,27,55,154,47*7D
$GPGSV,3,3,11,28,08,319,45,31,24,164,,32,63,035,46*46
$GPGLL,,,,,090603.00,V,N*46
$GPRMC,090604.00,V,,,,,,,280823,,,N*75
$GPVTG,,,,,,,,,N*30
$GPGGA,090604.00,,,,,0,00,99.99,,,,,,*6D
$GPGSA,A,1,,,,,,,,,,,,,99.99,99.99,99.99*30
$GPGSV,3,1,11,01,29,319,49,02,48,315,31,03,07,282,48,08,80,266,50*7B
$GPGSV,3,2,11,10,34,066,49,18,02,053,48,23,04,086,,27,55,154,49*71
$GPGSV,3,3,11,28,08,319,48,31,24,164,,32,63,035,49*44
$GPGLL,,,,,090604.00,V,N*41
$GPRMC,090605.00,V,,,,,,,280823,,,N*74
$GPVTG,,,,,,,,,N*30
$GPGGA,090605.00,,,,,0,00,99.99,,,,,,*6C
$GPGSA,A,1,,,,,,,,,,,,,99.99,99.99,99.99*30
$GPGSV,3,1,11,01,29,319,52,02,48,315,37,03,07,282,51,08,80,266,52*7D
$GPGSV,3,2,11,10,34,066,51,18,02,053,50,23,04,086,,27,55,154,52*7B
$GPGSV,3,3,11,28,08,319,50,31,24,164,,32,63,035,52*47
$GPGLL,,,,,090605.00,V,N*40
$GPRMC,090606.00,V,,,,,,,280823,,,N*77
$GPVTG,,,,,,,,,N*30
$GPGGA,090606.00,,,,,0,00,99.99,,,,,,*6F
$GPGSA,A,1,,,,,,,,,,,,,99.99,99.99,99.99*30
$GPGSV,3,1,12,01,29,319,51,02,48,315,32,03,07,282,50,08,80,266,52*79
$GPGSV,3,2,12,10,34,066,51,18,02,053,49,23,04,086,,27,55,154,51*73
$GPGSV,3,3,12,28,08,319,50,31,24,164,,32,63,035,51,39,42,223,31*7A
$GPGLL,,,,,090606.00,V,N*43
$GPRMC,090607.00,V,,,,,,,280823,,,N*76
$GPVTG,,,,,,,,,N*30
$GPGGA,090607.00,,,,,0,00,99.99,,,,,,*6E
$GPGSA,A,1,,,,,,,,,,,,,99.99,99.99,99.99*30
$GPGSV,3,1,11,01,29,319,49,02,48,315,34,03,07,282,48,08,80,266,50*7E
$GPGSV,3,2,11,10,34,066,49,18,02,053,48,23,04,086,,27,55,154,49*71
$GPGSV,3,3,11,28,08,319,48,31,24,164,,32,63,035,49*44
$GPGLL,,,,,090607.00,V,N*42
$GPRMC,090608.00,V,,,,,,,280823,,,N*79
$GPVTG,,,,,,,,,N*30
$GPGGA,090608.00,,,,,0,00,99.99,,,,,,*61
$GPGSA,A,1,,,,,,,,,,,,,99.99,99.99,99.99*30
$GPGSV,3,1,11,01,29,319,48,02,48,315,34,03,07,282,43,08,80,266,48*7D
$GPGSV,3,2,11,10,34,066,43,18,02,053,47,23,04,086,,27,55,154,48*75
$GPGSV,3,3,11,28,08,319,46,31,24,164,,32,63,035,48*4B
$GPGLL,,,,,090608.00,V,N*4D
$GPRMC,090611.00,V,,,,,,,280823,,,N*71
$GPVTG,,,,,,,,,N*30
$GPGGA,090611.00,,,,,0,00,99.99,,,,,,*69
$GPGSA,A,1,,,,,,,,,,,,,99.99,99.99,99.99*30
$GPGSV,3,1,11,01,29,319,47,02,48,315,32,03,07,282,47,08,80,266,48*70
$GPGSV,3,2,11,10,34,066,48,18,02,053,46,23,04,086,,27,55,154,48*7F
$GPGSV,3,3,11,28,08,319,46,31,24,164,,32,63,035,48*4B
$GPGLL,,,,,090611.00,V,N*45
$GPRMC,090628.00,V,,,,,,,280823,,,N*7B
$GPVTG,,,,,,,,,N*30
$GPGGA,090628.00,,,,,0,00,99.99,,,,,,*63
$GPGSA,A,1,,,,,,,,,,,,,99.99,99.99,99.99*30
$GPGSV,3,1,11,01,29,302,50,02,48,315,25,03,17,238,49,08,80,266,51*7C
$GPGSV,3,2,11,10,27,044,50,18,02,053,49,23,04,086,,27,55,154,50*72
$GPGSV,3,3,11,28,08,319,49,31,24,164,,32,48,087,51*4C
$GPGLL,,,,,090628.00,V,N*4F
$GPRMC,090708.00,V,,,,,,,280823,,,N*78
$GPVTG,,,,,,,,,N*30
$GPGGA,090708.00,,,,,0,00,99.99,,,,,,*60
$GPGSA,A,1,,,,,,,,,,,,,99.99,99.99,99.99*30
$GPGSV,3,1,11,01,29,302,48,02,48,315,28,03,17,238,48,08,80,266,49*70
$GPGSV,3,2,11,10,27,044,48,18,02,053,47,23,04,086,38,27,55,154,49*76
$GPGSV,3,3,11,28,08,319,47,31,24,164,,32,48,087,48*4A
$GPGLL,,,,,090708.00,V,N*4C
$GPRMC,090709.00,V,,,,,,,280823,,,N*79
$GPVTG,,,,,,,,,N*30
$GPGGA,090709.00,,,,,0,00,99.99,,,,,,*61
$GPGSA,A,1,,,,,,,,,,,,,99.99,99.99,99.99*30
$GPGSV,3,1,11,01,29,302,49,02,48,315,33,03,17,238,49,08,80,266,50*72
$GPGSV,3,2,11,10,27,044,49,18,02,053,48,23,04,086,35,27,55,154,50*7D
$GPGSV,3,3,11,28,08,319,48,31,24,164,,32,48,087,50*4C
$GPGLL,,,,,090709.00,V,N*4D
$GPRMC,090710.00,V,,,,,,,280823,,,N*71
$GPVTG,,,,,,,,,N*30
$GPGGA,090710.00,,,,,0,00,99.99,,,,,,*69
$GPGSA,A,1,,,,,,,,,,,,,99.99,99.99,99.99*30
$GPGSV,3,1,11,01,29,302,48,02,48,315,37,03,17,238,48,08,80,266,49*7E
$GPGSV,3,2,11,10,27,044,48,18,02,053,47,23,04,086,,27,55,154,49*7D
$GPGSV,3,3,11,28,08,319,48,31,24,164,,32,48,087,49*44
$GPGLL,,,,,090710.00,V,N*45
$GPRMC,090711.00,V,,,,,,,280823,,,N*70
$GPVTG,,,,,,,,,N*30
$GPGGA,090711.00,,,,,0,00,99.99,,,,,,*68
$GPGSA,A,1,,,,,,,,,,,,,99.99,99.99,99.99*30
$GPGSV,3,1,12,01,29,302,47,02,48,315,38,03,17,238,46,08,80,266,47*7D
$GPGSV,3,2,12,10,27,044,47,18,02,053,45,23,04,086,29,27,55,154,47*76
$GPGSV,3,3,12,28,08,319,46,31,24,164,,32,48,087,47,39,42,223,32*79
$GPGLL,,,,,090711.00,V,N*44
$GPRMC,090712.00,V,,,,,,,280823,,,N*73
$GPVTG,,,,,,,,,N*30
$GPGGA,090712.00,,,,,0,00,99.99,,,,,,*6B
$GPGSA,A,1,,,,,,,,,,,,,99.99,99.99,99.99*30
$GPGSV,3,1,11,01,29,302,48,02,48,315,35,03,17,238,47,08,80,266,48*72
$GPGSV,3,2,11,10,27,044,48,18,02,053,47,23,04,086,36,27,55,154,48*79
$GPGSV,3,3,11,28,08,319,47,31,24,164,,32,48,087,48*4A
$GPGLL,,,,,090712.00,V,N*47
$GPRMC,090713.00,V,,,,,,,280823,,,N*72
$GPVTG,,,,,,,,,N*30
$GPGGA,090713.00,,,,,0,00,99.99,,,,,,*6A
$GPGSA,A,1,,,,,,,,,,,,,99.99,99.99,99.99*30
$GPGSV,3,1,11,01,29,302,49,02,48,315,41,03,17,238,48,08,80,266,50*76
$GPGSV,3,2,11,10,27,044,49,18,02,053,48,23,04,086,,27,55,154,50*7B
$GPGSV,3,3,11,28,08,319,49,31,24,164,,32,48,087,50*4D
$GPGLL,,,,,090713.00,V,N*46
$GPRMC,090714.00,V,,,,,,,280823,,,N*75
$GPVTG,,,,,,,,,N*30
$GPGGA,090714.00,,,,,0,00,99.99,,,,,,*6D
$GPGSA,A,1,,,,,,,,,,,,,99.99,99.99,99.99*30
$GPGSV,3,1,09,01,,,48,02,,,40,03,,,47,08,,,49*7C
$GPGSV,3,2,09,10,,,48,18,,,47,27,,,49,28,,,47*77
$GPGSV,3,3,09,32,,,48*7D
$GPGLL,,,,,090714.00,V,N*41
$GPRMC,090715.01,V,,,,,,,280823,,,N*75
$GPVTG,,,,,,,,,N*30
$GPGGA,090715.01,,,,,0,00,99.99,,,,,,*6D
$GPGSA,A,1,,,,,,,,,,,,,99.99,99.99,99.99*30
$GPGSV,4,1,13,01,31,300,47,02,52,311,29,03,16,237,46,04,,,44*44
$GPGSV,4,2,13,08,79,241,47,10,29,046,46,11,,,50,18,03,054,45*4A
$GPGSV,4,3,13,23,03,088,,27,51,157,47,28,10,318,46,31,22,164,28*77
$GPGSV,4,4,13,32,48,091,47*4D
$GPGLL,,,,,090715.01,V,N*41
$GPRMC,090716.00,V,,,,,,,280823,,,N*77
$GPVTG,,,,,,,,,N*30
$GPGGA,090716.00,,,,,0,00,99.99,,,,,,*6F
$GPGSA,A,1,,,,,,,,,,,,,99.99,99.99,99.99*30
$GPGSV,4,1,16,01,31,300,48,02,52,311,34,03,16,237,47,04,,,48*4F
$GPGSV,4,2,16,08,79,241,49,10,29,046,48,11,,,49,14,,,48*74
$GPGSV,4,3,16,16,,,47,18,03,054,47,22,,,48,23,03,088,*7B
$GPGSV,4,4,16,27,51,157,48,28,10,318,47,31,22,164,,32,48,091,49*7B
$GPGLL,,,,,090716.00,V,N*43
$GPRMC,090402.01,V,,,,,,,280823,,,N*70
$GPVTG,,,,,,,,,N*30
$GPGGA,090402.01,,,,,0,09,1.17,,,,,,*56
$GPGSA,A,1,27,32,02,10,18,03,28,01,08,,,,1.82,1.17,1.39*09
$GPGSV,4,1,16,01,31,300,45,02,52,311,29,03,16,237,45,04,,,45*41
$GPGSV,4,2,16,08,79,241,47,10,29,046,45,11,,,46,14,,,46*76
$GPGSV,4,3,16,16,,,45,18,03,054,44,22,,,45,23,03,088,*77
$GPGSV,4,4,16,27,51,157,46,28,10,318,44,31,22,164,,32,48,091,46*79
$GPGLL,,,,,090402.01,V,N*44
$GPRMC,090403.00,V,,,,,,,280823,,,N*70
$GPVTG,,,,,,,,,N*30
$GPGGA,090403.00,,,,,0,08,1.03,,,,,,*52
$GPGSA,A,1,27,32,10,18,03,28,01,08,,,,,1.73,1.03,1.38*01
$GPGSV,3,1,12,01,30,299,51,02,51,312,37,03,15,236,50,08,79,248,52*74
$GPGSV,3,2,12,10,31,046,51,18,04,053,49,23,04,087,,27,52,156,51*76
$GPGSV,3,3,12,28,10,319,50,31,20,164,,32,47,093,51,39,40,220,31*7C
$GPGLL,,,,,090403.00,V,N*44
$GPRMC,090404.00,V,,,,,,,280823,,,N*77
$GPVTG,,,,,,,,,N*30
$GPGGA,090404.00,,,,,0,08,1.03,,,,,,*55
$GPGSA,A,1,27,32,10,18,03,28,01,08,,,,,1.73,1.03,1.38*01
$GPGSV,3,1,11,01,30,299,49,02,51,312,,03,15,236,49,08,79,248,50*70
$GPGSV,3,2,11,10,31,046,49,18,04,053,48,23,04,087,,27,52,156,50*7C
$GPGSV,3,3,11,28,10,319,49,31,20,164,,32,47,093,50*4A
$GPGLL,,,,,090404.00,V,N*43
$GPRMC,090405.00,V,,,,,,,280823,,,N*76
$GPVTG,,,,,,,,,N*30
$GPGGA,090405.00,,,,,0,08,1.03,,,,,,*54
$GPGSA,A,1,27,32,10,18,03,28,01,08,,,,,1.73,1.03,1.38*01
$GPGSV,3,1,11,01,30,299,48,02,51,312,,03,15,236,47,08,79,248,49*77
$GPGSV,3,2,11,10,31,046,48,18,04,053,47,23,04,087,,27,52,156,48*7B
$GPGSV,3,3,11,28,10,319,47,31,20,164,,32,47,093,48*4D
$GPGLL,,,,,090405.00,V,N*42
$GPRMC,090406.00,V,,,,,,,280823,,,N*75
$GPVTG,,,,,,,,,N*30
$GPGGA,090406.00,,,,,0,08,1.03,,,,,,*57
$GPGSA,A,1,27,32,10,18,03,28,01,08,,,,,1.73,1.03,1.38*01
$GPGSV,3,1,11,01,30,299,45,02,51,312,35,03,15,236,45,08,79,248,46*71
$GPGSV,3,2,11,10,31,046,45,18,04,053,44,23,04,087,,27,52,156,46*7B
$GPGSV,3,3,11,28,10,319,44,31,20,164,,32,47,093,46*40
$GPGLL,,,,,090406.00,V,N*41
$GPRMC,090407.00,V,,,,,,,280823,,,N*74
$GPVTG,,,,,,,,,N*30
$GPGGA,090407.00,,,,,0,08,1.03,,,,,,*56
$GPGSA,A,1,27,32,10,18,03,28,01,08,,,,,1.73,1.03,1.38*01
$GPGSV,3,1,11,01,30,299,50,02,51,312,,03,15,236,49,08,79,248,51*79
$GPGSV,3,2,11,10,31,046,50,18,04,053,49,23,04,087,,27,52,156,51*74
$GPGSV,3,3,11,28,10,319,49,31,20,164,,32,47,093,51*4B
$GPGLL,,,,,090407.00,V,N*40
$GPRMC,090408.00,V,,,,,,,280823,,,N*7B
$GPVTG,,,,,,,,,N*30
$GPGGA,090408.00,,,,,0,08,1.03,,,,,,*59
$GPGSA,A,1,27,32,10,18,03,28,01,08,,,,,1.73,1.03,1.38*01
$GPGSV,3,1,11,01,30,299,48,02,51,312,,03,15,236,47,08,79,248,49*77
$GPGSV,3,2,11,10,31,046,47,18,04,053,47,23,04,087,,27,52,156,48*74
$GPGSV,3,3,11,28,10,319,47,31,20,164,,32,47,093,48*4D
$GPGLL,,,,,090408.00,V,N*4F
$GPRMC,090409.00,V,,,,,,,280823,,,N*7A
$GPVTG,,,,,,,,,N*30
$GPGGA,090409.00,,,,,0,08,1.03,,,,,,*58
$GPGSA,A,1,27,32,10,18,03,28,01,08,,,,,1.73,1.03,1.38*01
$GPGSV,3,1,11,01,30,299,48,02,51,312,,03,15,236,47,08,79,248,49*77
$GPGSV,3,2,11,10,31,046,48,18,04,053,47,23,04,087,,27,52,156,49*7A
$GPGSV,3,3,11,28,10,319,47,31,20,164,,32,47,093,48*4D
$GPGLL,,,,,090409.00,V,N*4E
$GPRMC,090410.00,V,,,,,,,280823,,,N*72
$GPVTG,,,,,,,,,N*30
$GPGGA,090410.00,,,,,0,08,1.03,,,,,,*50
$GPGSA,A,1,27,32,10,18,03,28,01,08,,,,,1.73,1.03,1.38*01
$GPGSV,3,1,11,01,30,299,49,02,51,312,,03,15,236,48,08,79,248,50*71
$GPGSV,3,2,11,10,31,046,49,18,04,053,48,23,04,087,,27,52,156,49*74
$GPGSV,3,3,11,28,10,319,48,31,20,164,,32,47,093,49*43
$GPGLL,,,,,090410.00,V,N*46
$GPRMC,090411.00,V,,,,,,,280823,,,N*73
$GPVTG,,,,,,,,,N*30
$GPGGA,090411.00,,,,,0,08,1.03,,,,,,*51
$GPGSA,A,1,27,32,10,18,03,28,01,08,,,,,1.73,1.03,1.38*01
$GPGSV,3,1,11,01,30,299,50,02,51,312,,03,15,236,50,08,79,247,51*7E
$GPGSV,3,2,11,10,31,046,50,18,04,053,49,23,04,087,,27,52,156,50*75
$GPGSV,3,3,11,28,10,319,49,31,20,164,,32,47,093,50*4A
$GPGLL,,,,,090411.00,V,N*47
$GPRMC,090412.00,V,,,,,,,280823,,,N*70
$GPVTG,,,,,,,,,N*30
$GPGGA,090412.00,,,,,0,08,1.03,,,,,,*52
$GPGSA,A,1,27,32,10,18,03,28,01,08,,,,,1.73,1.03,1.38*01
$GPGSV,3,1,11,01,30,299,48,02,51,312,,03,15,236,47,08,79,247,48*79
$GPGSV,3,2,11,10,31,046,48,18,04,053,46,23,04,087,,27,52,156,48*7A
$GPGSV,3,3,11,28,10,319,47,31,20,164,,32,47,093,48*4D
$GPGLL,,,,,090412.00,V,N*44
$GPRMC,090413.00,A,3542.05458,N,05123.47509,E,0.148,,280823,,,A*77
$GPVTG,,T,,M,0.148,N,0.274,K,A*2F
$GPGGA,090413.00,3542.05458,N,05123.47509,E,1,08,1.03,1292.4,M,-17.6,M,,*4E
$GPGSA,A,3,27,32,10,18,03,28,01,08,,,,,1.73,1.03,1.38*03
$GPGSV,3,1,11,01,30,299,49,02,51,312,,03,15,236,49,08,79,247,50*7F
$GPGSV,3,2,11,10,30,046,49,18,04,053,48,23,04,087,,27,52,156,50*7D
$GPGSV,3,3,11,28,10,319,48,31,20,164,,32,47,093,50*4B
$GPGLL,3542.05458,N,05123.47509,E,090413.00,A,A*60
$GPRMC,090414.00,A,3542.05456,N,05123.47508,E,0.031,,280823,,,A*70
$GPVTG,,T,,M,0.031,N,0.057,K,A*23
$GPGGA,090414.00,3542.05456,N,05123.47508,E,1,07,1.16,1292.3,M,-17.6,M,,*4A
$GPGSA,A,3,27,32,10,03,28,01,08,,,,,,2.17,1.16,1.84*08
$GPGSV,3,1,11,01,30,299,48,02,51,312,39,03,15,236,48,08,79,247,49*7D
$GPGSV,3,2,11,10,30,046,48,18,04,053,47,23,04,087,,27,52,156,48*7A
$GPGSV,3,3,11,28,10,319,47,31,20,164,,32,47,093,48*4D
$GPGLL,3542.05456,N,05123.47508,E,090414.00,A,A*68
$GPRMC,090415.00,A,3542.05457,N,05123.47505,E,0.048,,280823,,,A*73
$GPVTG,,T,,M,0.048,N,0.090,K,A*26
$GPGGA,090415.00,3542.05457,N,05123.47505,E,1,07,1.16,1292.4,M,-17.6,M,,*40
$GPGSA,A,3,27,32,10,03,28,01,08,,,,,,2.17,1.16,1.84*08
$GPGSV,3,1,11,01,30,299,48,02,51,312,,03,15,236,47,08,79,247,48*79
$GPGSV,3,2,11,10,30,046,47,18,04,053,47,23,04,087,,27,52,156,48*75
$GPGSV,3,3,11,28,10,319,47,31,20,164,,32,47,093,48*4D
$GPGLL,3542.05457,N,05123.47505,E,090415.00,A,A*65
$GPRMC,090416.00,A,3542.05459,N,05123.47504,E,0.020,,280823,,,A*71
$GPVTG,,T,,M,0.020,N,0.036,K,A*24
$GPGGA,090416.00,3542.05459,N,05123.47504,E,1,07,1.16,1292.3,M,-17.6,M,,*4B
$GPGSA,A,3,27,32,10,03,28,01,08,,,,,,2.17,1.16,1.84*08
$GPGSV,3,1,11,01,30,299,47,02,51,312,,03,15,236,46,08,79,247,48*77
$GPGSV,3,2,11,10,30,046,47,18,04,053,46,23,04,087,,27,52,156,48*74
$GPGSV,3,3,11,28,10,319,46,31,20,164,,32,47,093,47*43
$GPGLL,3542.05459,N,05123.47504,E,090416.00,A,A*69
$GPRMC,090417.00,A,3542.05459,N,05123.47503,E,0.019,,280823,,,A*7D
$GPVTG,,T,,M,0.019,N,0.035,K,A*2D
$GPGGA,090417.00,3542.05459,N,05123.47503,E,1,08,1.16,1292.3,M,-17.6,M,,*42
$GPGSA,A,3,27,32,02,10,03,28,01,08,,,,,2.17,1.16,1.84*0A
$GPGSV,3,1,11,01,30,299,46,02,51,312,28,03,15,236,46,08,79,247,47*73
$GPGSV,3,2,11,10,30,046,46,18,04,053,46,23,04,087,,27,52,156,47*7A
$GPGSV,3,3,11,28,10,319,45,31,20,164,,32,47,093,47*40
$GPGLL,3542.05459,N,05123.47503,E,090417.00,A,A*6F
$GPRMC,090418.00,A,3542.05460,N,05123.47502,E,0.016,,280823,,,A*76
$GPVTG,,T,,M,0.016,N,0.029,K,A*2F
$GPGGA,090418.00,3542.05460,N,05123.47502,E,1,07,1.16,1292.3,M,-17.6,M,,*49
$GPGSA,A,3,27,32,10,03,28,01,08,,,,,,2.17,1.16,1.84*08
$GPGSV,3,1,11,01,30,299,50,02,51,312,,03,15,236,50,08,79,247,51*7E
$GPGSV,3,2,11,10,30,046,50,18,04,053,49,23,04,087,,27,52,156,50*74
$GPGSV,3,3,11,28,10,319,49,31,20,164,,32,47,093,50*4A
$GPGLL,3542.05460,N,05123.47502,E,090418.00,A,A*6B
$GPRMC,090419.00,A,3542.05461,N,05123.47500,E,0.017,,280823,,,A*75
$GPVTG,,T,,M,0.017,N,0.031,K,A*27
$GPGGA,090419.00,3542.05461,N,05123.47500,E,1,07,1.16,1292.4,M,-17.6,M,,*4C
$GPGSA,A,3,27,32,10,03,28,01,08,,,,,,2.17,1.16,1.84*08
$GPGSV,3,1,11,01,30,299,48,02,51,312,,03,15,236,48,08,79,247,49*77
$GPGSV,3,2,11,10,30,046,48,18,04,053,47,23,04,087,,27,52,156,48*7A
$GPGSV,3,3,11,28,10,319,47,31,20,164,,32,47,093,48*4D
$GPGLL,3542.05461,N,05123.47500,E,090419.00,A,A*69
$GPRMC,090420.00,A,3542.05463,N,05123.47492,E,0.010,,280823,,,A*70
$GPVTG,,T,,M,0.010,N,0.019,K,A*2A
$GPGGA,090420.00,3542.05463,N,05123.47492,E,1,07,1.16,1292.8,M,-17.6,M,,*42
$GPGSA,A,3,27,32,10,03,28,01,08,,,,,,2.17,1.16,1.84*08
$GPGSV,3,1,11,01,30,299,44,02,51,312,,03,15,236,43,08,79,247,44*7D
$GPGSV,3,2,11,10,30,046,43,18,04,053,42,23,04,087,,27,52,156,43*7F
$GPGSV,3,3,11,28,10,319,42,31,20,164,,32,47,093,44*44
$GPGLL,3542.05463,N,05123.47492,E,090420.00,A,A*6B
$GPRMC,090421.00,A,3542.05465,N,05123.47481,E,0.035,,280823,,,A*72
$GPVTG,,T,,M,0.035,N,0.065,K,A*26
$GPGGA,090421.00,3542.05465,N,05123.47481,E,1,07,1.15,1293.3,M,-17.6,M,,*4E
$GPGSA,A,3,27,32,10,03,28,01,08,,,,,,2.17,1.15,1.84*0B
$GPGSV,3,1,11,01,30,299,42,02,51,312,,03,15,236,42,08,79,247,43*7D
$GPGSV,3,2,11,10,30,046,41,18,04,053,41,23,04,087,,27,52,156,42*7F
$GPGSV,3,3,11,28,10,319,41,31,20,164,,32,47,093,42*41
$GPGLL,3542.05465,N,05123.47481,E,090421.00,A,A*6E
$GPRMC,090422.00,A,3542.05466,N,05123.47474,E,0.016,,280823,,,A*79
$GPVTG,,T,,M,0.016,N,0.029,K,A*2F
$GPGGA,090422.00,3542.05466,N,05123.47474,E,1,07,1.15,1293.5,M,-17.6,M,,*42
$GPGSA,A,3,27,32,10,03,28,01,08,,,,,,2.17,1.15,1.84*0B
$GPGSV,3,1,11,01,30,299,48,02,51,312,,03,15,236,48,08,79,247,49*77
$GPGSV,3,2,11,10,30,046,48,18,04,053,47,23,04,087,,27,52,156,49*7B
$GPGSV,3,3,11,28,10,319,47,31,20,164,,32,47,093,49*4C
$GPGLL,3542.05466,N,05123.47474,E,090422.00,A,A*64
$GPRMC,090423.00,A,3542.05466,N,05123.47471,E,0.007,,280823,,,A*7D
$GPVTG,,T,,M,0.007,N,0.014,K,A*21
$GPGGA,090423.00,3542.05466,N,05123.47471,E,1,07,1.15,1293.6,M,-17.6,M,,*45
$GPGSA,A,3,27,32,10,03,28,01,08,,,,,,2.17,1.15,1.84*0B
$GPGSV,3,1,11,01,30,299,53,02,51,312,,03,15,236,52,08,79,247,54*7A
$GPGSV,3,2,11,10,30,046,53,18,04,053,52,23,04,087,,27,52,156,53*7E
$GPGSV,3,3,11,28,10,319,52,31,20,164,,32,47,093,53*43
$GPGLL,3542.05466,N,05123.47471,E,090423.00,A,A*60
$GPRMC,090424.00,A,3542.05467,N,05123.47470,E,0.012,,280823,,,A*7E
$GPVTG,,T,,M,0.012,N,0.022,K,A*20
$GPGGA,090424.00,3542.05467,N,05123.47470,E,1,07,1.15,1293.7,M,-17.6,M,,*43
$GPGSA,A,3,27,32,10,03,28,01,08,,,,,,2.17,1.15,1.84*0B
$GPGSV,3,1,11,01,30,299,48,02,51,312,,03,15,236,47,08,79,247,49*78
$GPGSV,3,2,11,10,30,046,48,18,04,053,47,23,04,087,,27,52,156,48*7A
$GPGSV,3,3,11,28,10,319,47,31,20,164,,32,47,093,48*4D
$GPGLL,3542.05467,N,05123.47470,E,090424.00,A,A*67
$GPRMC,090425.00,A,3542.05467,N,05123.47468,E,0.010,,280823,,,A*74
$GPVTG,,T,,M,0.010,N,0.018,K,A*2B
$GPGGA,090425.00,3542.05467,N,05123.47468,E,1,07,1.15,1293.8,M,-17.6,M,,*44
$GPGSA,A,3,27,32,10,03,28,01,08,,,,,,2.17,1.15,1.84*0B
$GPGSV,3,1,11,01,30,299,49,02,51,312,24,03,15,236,49,08,79,247,50*79
$GPGSV,3,2,11,10,30,046,49,18,04,053,48,23,04,087,,27,52,156,50*7D
$GPGSV,3,3,11,28,10,319,48,31,20,164,,32,47,093,50*4B
$GPGLL,3542.05467,N,05123.47468,E,090425.00,A,A*6F
$GPRMC,090426.00,A,3542.05468,N,05123.47465,E,0.006,,280823,,,A*72
$GPVTG,,T,,M,0.006,N,0.010,K,A*24
$GPGGA,090426.00,3542.05468,N,05123.47465,E,1,08,1.15,1293.9,M,-17.6,M,,*4B
$GPGSA,A,3,27,32,02,10,03,28,01,08,,,,,2.18,1.15,1.84*06
$GPGSV,3,1,11,01,30,299,50,02,51,312,21,03,15,236,49,08,79,247,50*74
$GPGSV,3,2,11,10,30,046,50,18,04,053,49,23,04,087,,27,52,156,50*74
$GPGSV,3,3,11,28,10,319,49,31,20,164,,32,47,093,50*4A
$GPGLL,3542.05468,N,05123.47465,E,090426.00,A,A*6E
$GPRMC,090427.00,A,3542.05468,N,05123.47462,E,0.014,,280823,,,A*77
$GPVTG,,T,,M,0.014,N,0.026,K,A*22
$GPGGA,090427.00,3542.05468,N,05123.47462,E,1,08,1.15,1294.0,M,-17.6,M,,*43
$GPGSA,A,3,27,32,02,10,03,28,01,08,,,,,2.18,1.15,1.84*06
$GPGSV,3,1,11,01,30,299,50,02,51,312,18,03,15,236,49,08,79,247,50*7E
$GPGSV,3,2,11,10,30,046,49,18,04,053,48,23,04,087,,27,52,156,50*7D
$GPGSV,3,3,11,28,10,319,48,31,20,164,,32,47,093,50*4B
$GPGLL,3542.05468,N,05123.47462,E,090427.00,A,A*68
$GPRMC,090428.00,A,3542.05469,N,05123.47458,E,0.011,,280823,,,A*75
$GPVTG,,T,,M,0.011,N,0.021,K,A*20
$GPGGA,090428.00,3542.05469,N,05123.47458,E,1,08,1.15,1294.2,M,-17.6,M,,*46
$GPGSA,A,3,27,32,02,10,03,28,01,08,,,,,2.18,1.15,1.84*06
$GPGSV,3,1,11,01,30,299,47,02,51,312,20,03,15,236,47,08,79,247,48*74
$GPGSV,3,2,11,10,30,046,47,18,04,053,46,23,04,087,,27,52,156,48*74
$GPGSV,3,3,11,28,10,319,46,31,20,164,,32,47,093,48*4C
$GPGLL,3542.05469,N,05123.47458,E,090428.00,A,A*6F
$GPRMC,090429.00,A,3542.05470,N,05123.47453,E,0.011,,280823,,,A*77
$GPVTG,,T,,M,0.011,N,0.020,K,A*21
$GPGGA,090429.00,3542.05470,N,05123.47453,E,1,07,1.15,1294.4,M,-17.6,M,,*4D
$GPGSA,A,3,27,32,10,03,28,01,08,,,,,,2.18,1.15,1.84*04
$GPGSV,3,1,11,01,30,299,48,02,51,312,,03,15,236,47,08,79,247,49*78
$GPGSV,3,2,11,10,30,046,48,18,04,053,47,23,04,087,,27,52,156,48*7A
$GPGSV,3,3,11,28,10,319,47,31,20,164,,32,47,093,48*4D
$GPGLL,3542.05470,N,05123.47453,E,090429.00,A,A*6D
$GPRMC,090430.00,A,3542.05471,N,05123.47447,E,0.010,,280823,,,A*7A
$GPVTG,,T,,M,0.010,N,0.018,K,A*2B
$GPGGA,090430.00,3542.05471,N,05123.47447,E,1,07,1.15,1294.6,M,-17.6,M,,*43
$GPGSA,A,3,27,32,10,03,28,01,08,,,,,,2.18,1.15,1.84*04
$GPGSV,3,1,11,01,30,299,49,02,51,312,,03,15,236,48,08,79,247,49*76
$GPGSV,3,2,11,10,30,046,49,18,04,053,48,23,04,087,,27,52,156,49*75
$GPGSV,3,3,11,28,10,319,48,31,20,164,,32,47,093,49*43
$GPGLL,3542.05471,N,05123.47447,E,090430.00,A,A*61
$GPRMC,090431.00,A,3542.05473,N,05123.47442,E,0.008,,280823,,,A*75
$GPVTG,,T,,M,0.008,N,0.014,K,A*2E
$GPGGA,090431.00,3542.05473,N,05123.47442,E,1,07,1.15,1294.8,M,-17.6,M,,*4B
$GPGSA,A,3,27,32,10,03,28,01,08,,,,,,2.18,1.15,1.84*04
$GPGSV,3,1,11,01,30,299,49,02,51,312,,03,15,236,48,08,79,247,50*7E
$GPGSV,3,2,11,10,30,046,49,18,04,053,47,23,04,087,,27,52,156,49*7A
$GPGSV,3,3,11,28,10,318,48,31,20,164,,32,47,093,49*42
$GPGLL,3542.05473,N,05123.47442,E,090431.00,A,A*67
$GPRMC,090432.00,A,3542.05474,N,05123.47435,E,0.006,,280823,,,A*7F
$GPVTG,,T,,M,0.006,N,0.012,K,A*26
$GPGGA,090432.00,3542.05474,N,05123.47435,E,1,07,1.15,1295.1,M,-17.6,M,,*47
$GPGSA,A,3,27,32,10,03,28,01,08,,,,,,2.18,1.15,1.84*04
$GPGSV,3,1,11,01,30,299,47,02,51,312,,03,15,236,46,08,79,247,48*77
$GPGSV,3,2,11,10,30,046,47,18,04,053,45,23,04,087,,27,52,156,47*78
$GPGSV,3,3,11,28,10,318,46,31,20,164,,32,47,093,47*42
$GPGLL,3542.05474,N,05123.47435,E,090432.00,A,A*63
$GPRMC,090433.00,A,3542.05476,N,05123.47426,E,0.011,,280823,,,A*78
$GPVTG,,T,,M,0.011,N,0.021,K,A*20
$GPGGA,090433.00,3542.05476,N,05123.47426,E,1,07,1.15,1295.5,M,-17.6,M,,*42
$GPGSA,A,3,27,32,10,03,28,01,08,,,,,,2.18,1.15,1.84*04
$GPGSV,3,1,11,01,30,299,49,02,51,312,31,03,15,236,49,08,79,247,50*7D
$GPGSV,3,2,11,10,30,046,49,18,04,053,48,23,04,087,,27,52,156,50*7D
$GPGSV,3,3,11,28,10,318,48,31,20,164,,32,47,093,50*4A
$GPGLL,3542.05476,N,05123.47426,E,090433.00,A,A*62
$GPRMC,090434.00,A,3542.05478,N,05123.47415,E,0.010,,280823,,,A*70
$GPVTG,,T,,M,0.010,N,0.019,K,A*2A
$GPGGA,090434.00,3542.05478,N,05123.47415,E,1,07,1.15,1295.9,M,-17.6,M,,*47
$GPGSA,A,3,27,32,10,03,28,01,08,,,,,,2.18,1.15,1.84*04
$GPGSV,3,1,11,01,30,299,46,02,51,312,,03,15,236,46,08,79,247,47*79
$GPGSV,3,2,11,10,30,046,46,18,04,053,45,23,04,087,,27,52,156,47*79
$GPGSV,3,3,11,28,10,318,45,31,20,164,,32,47,093,47*41
$GPGLL,3542.05478,N,05123.47415,E,090434.00,A,A*6B
$GPRMC,090435.00,A,3542.05479,N,05123.47400,E,0.073,,280823,,,A*71
$GPVTG,,T,,M,0.073,N,0.135,K,A*20
$GPGGA,090435.00,3542.05479,N,05123.47400,E,1,07,1.15,1296.8,M,-17.6,M,,*41
$GPGSA,A,3,27,32,10,03,28,01,08,,,,,,2.18,1.15,1.84*04
$GPGSV,3,1,11,01,30,299,30,02,51,312,,03,15,236,30,08,79,247,32*7B
$GPGSV,3,2,11,10,30,046,30,18,04,053,26,23,04,087,19,27,52,156,31*74
$GPGSV,3,3,11,28,10,318,20,31,20,164,,32,47,093,31*43
$GPGLL,3542.05479,N,05123.47400,E,090435.00,A,A*6F
$GPRMC,090436.00,A,3542.05478,N,05123.47294,E,2.341,163.43,280823,,,A*65
$GPVTG,163.43,T,,M,2.341,N,4.335,K,A*3B
$GPGGA,090436.00,3542.05478,N,05123.47294,E,1,07,1.15,1297.7,M,-17.6,M,,*46
$GPGSA,A,3,27,32,10,03,28,01,08,,,,,,2.18,1.15,1.84*04
$GPGSV,3,1,11,01,30,299,49,02,51,312,,03,15,236,49,08,79,247,49*77
$GPGSV,3,2,11,10,30,046,49,18,04,053,48,23,04,087,,27,52,156,49*75
$GPGSV,3,3,11,28,10,318,48,31,20,164,22,32,47,093,48*43
$GPGLL,3542.05478,N,05123.47294,E,090436.00,A,A*66
$GPRMC,090437.00,A,3542.05478,N,05123.47258,E,1.342,,280823,,,A*79
$GPVTG,,T,,M,1.342,N,2.485,K,A*2C
$GPGGA,090437.00,3542.05478,N,05123.47258,E,1,07,1.15,1298.4,M,-17.6,M,,*4B
$GPGSA,A,3,27,32,10,03,28,01,08,,,,,,2.18,1.15,1.85*05
$GPGSV,3,1,11,01,30,299,49,02,51,312,,03,15,236,48,08,79,247,50*7E
$GPGSV,3,2,11,10,30,046,49,18,04,053,48,23,04,087,,27,52,156,50*7D
$GPGSV,3,3,11,28,10,318,48,31,20,164,,32,47,093,47*4C
$GPGLL,3542.05478,N,05123.47258,E,090437.00,A,A*67
$GPRMC,090438.00,A,3542.05470,N,05123.47206,E,1.206,,280823,,,A*74
$GPVTG,,T,,M,1.206,N,2.234,K,A*21
$GPGGA,090438.00,3542.05470,N,05123.47206,E,1,07,1.15,1299.3,M,-17.6,M,,*41
$GPGSA,A,3,27,32,10,03,28,01,08,,,,,,2.18,1.15,1.85*05
$GPGSV,3,1,12,01,30,299,21,02,51,312,,03,15,236,19,08,79,247,32*73
$GPGSV,3,2,12,10,30,046,17,18,04,053,16,23,04,087,,27,52,156,17*7D
$GPGSV,3,3,12,28,10,318,20,31,20,164,,32,47,093,24,39,40,220,27*7F
$GPGLL,3542.05470,N,05123.47206,E,090438.00,A,A*6B
$GPRMC,090439.00,A,3542.05592,N,05123.47180,E,1.130,,280823,,,A*73
$GPVTG,,T,,M,1.130,N,2.093,K,A*28
$GPGGA,090439.00,3542.05592,N,05123.47180,E,1,07,1.46,1312.0,M,-17.6,M,,*47
$GPGSA,A,3,27,32,10,03,28,01,08,,,,,,2.47,1.46,1.99*04
$GPGSV,3,1,11,01,30,299,40,02,51,312,,03,15,236,23,08,79,247,43*78
$GPGSV,3,2,11,10,30,046,27,18,04,053,29,23,04,087,,27,52,156,31*75
$GPGSV,3,3,11,28,10,318,20,31,20,164,26,32,47,093,35*43
$GPGLL,3542.05592,N,05123.47180,E,090439.00,A,A*6A
$GPRMC,090440.00,A,3542.05599,N,05123.47041,E,0.806,,280823,,,A*77
$GPVTG,,T,,M,0.806,N,1.493,K,A*22
$GPGGA,090440.00,3542.05599,N,05123.47041,E,1,07,1.27,1313.5,M,-17.6,M,,*4D
$GPGSA,A,3,32,31,10,03,28,01,08,,,,,,2.24,1.27,1.85*0C
$GPGSV,3,1,11,01,30,299,32,02,51,312,,03,15,236,29,08,79,247,33*70
$GPGSV,3,2,11,10,30,046,38,18,04,053,38,23,04,087,,27,52,156,*79
$GPGSV,3,3,11,28,10,318,39,31,20,164,22,32,47,093,39*43
$GPGLL,3542.05599,N,05123.47041,E,090440.00,A,A*63
$GPRMC,090441.00,A,3542.05623,N,05123.46952,E,0.414,,280823,,,A*71
$GPVTG,,T,,M,0.414,N,0.767,K,A*24
$GPGGA,090441.00,3542.05623,N,05123.46952,E,1,08,1.46,1319.0,M,-17.6,M,,*43
$GPGSA,A,3,27,32,31,10,03,28,01,08,,,,,2.47,1.46,1.99*06
$GPGSV,3,1,11,01,30,299,25,02,51,312,,03,15,236,27,08,79,247,33*78
$GPGSV,3,2,11,10,30,046,24,18,04,053,25,23,04,087,21,27,52,156,50*7E
$GPGSV,3,3,11,28,10,318,27,31,20,164,14,32,47,093,25*44
$GPGLL,3542.05623,N,05123.46952,E,090441.00,A,A*6A
$GPRMC,090442.00,A,3542.05520,N,05123.46800,E,2.974,,280823,,,A*7D
$GPVTG,,T,,M,2.974,N,5.507,K,A*2C
$GPGGA,090442.00,3542.05520,N,05123.46800,E,1,08,1.46,1322.5,M,-17.6,M,,*4B
$GPGSA,A,3,32,02,31,10,03,28,01,08,,,,,2.47,1.46,1.99*01
$GPGSV,3,1,11,01,30,299,34,02,51,312,18,03,15,236,26,08,79,247,29*7B
$GPGSV,3,2,11,10,30,046,25,18,04,053,25,23,04,087,26,27,52,156,47*7E
$GPGSV,3,3,11,28,10,318,25,31,20,164,11,32,47,093,26*40
$GPGLL,3542.05520,N,05123.46800,E,090442.00,A,A*6F
$GPRMC,090443.00,A,3542.04916,N,05123.46990,E,6.673,180.94,280823,,,A*6A
$GPVTG,180.94,T,,M,6.673,N,12.359,K,A*01
$GPGGA,090443.00,3542.04916,N,05123.46990,E,1,06,3.86,1316.6,M,-17.6,M,,*4E
$GPGSA,A,3,27,32,10,03,28,08,,,,,,,11.13,3.86,10.44*08
$GPGSV,3,1,11,01,30,299,45,02,51,312,30,03,15,236,27,08,79,247,31*7F
$GPGSV,3,2,11,10,30,046,25,18,04,053,48,23,04,087,,27,52,156,49*7F
$GPGSV,3,3,11,28,10,318,25,31,20,164,,32,47,093,30*47
$GPGLL,3542.04916,N,05123.46990,E,090443.00,A,A*6E
$GPRMC,090444.00,A,3542.05035,N,05123.45375,E,23.541,255.11,280823,,,A*55
$GPVTG,255.11,T,,M,23.541,N,43.597,K,A*32
$GPGGA,090444.00,3542.05035,N,05123.45375,E,1,05,1.43,1315.4,M,-17.6,M,,*4B
$GPGSA,A,3,32,10,03,28,01,,,,,,,,3.73,1.43,3.45*09
$GPGSV,3,1,11,01,30,299,48,02,51,312,27,03,15,236,47,08,79,247,49*7D
$GPGSV,3,2,11,10,30,046,48,18,04,053,47,23,04,087,,27,52,156,42*70
$GPGSV,3,3,11,28,10,318,24,31,20,164,,32,47,093,29*4E
$GPGLL,3542.05035,N,05123.45375,E,090444.00,A,A*62
$GPRMC,090445.00,A,3542.05186,N,05123.45975,E,1.077,,280823,,,A*7B
$GPVTG,,T,,M,1.077,N,1.995,K,A*26
$GPGGA,090445.00,3542.05186,N,05123.45975,E,1,07,1.15,1317.2,M,-17.6,M,,*4C
$GPGSA,A,3,27,32,10,03,28,01,08,,,,,,2.18,1.15,1.85*05
$GPGSV,3,1,11,01,30,299,49,02,51,312,,03,15,236,48,08,79,247,49*76
$GPGSV,3,2,11,10,30,046,48,18,04,053,47,23,04,087,,27,52,156,49*7B
$GPGSV,3,3,11,28,10,318,47,31,20,164,,32,47,093,49*4D
$GPGLL,3542.05186,N,05123.45975,E,090445.00,A,A*60
$GPRMC,090446.00,A,3542.05214,N,05123.45932,E,0.023,,280823,,,A*73
$GPVTG,,T,,M,0.023,N,0.042,K,A*24
$GPGGA,090446.00,3542.05214,N,05123.45932,E,1,07,1.15,1319.2,M,-17.6,M,,*4A
$GPGSA,A,3,27,32,10,03,28,01,08,,,,,,2.18,1.15,1.85*05
$GPGSV,3,1,11,01,30,299,48,02,51,312,,03,15,236,47,08,79,247,48*79
$GPGSV,3,2,11,10,30,046,48,18,04,053,46,23,04,087,,27,52,156,48*7B
$GPGSV,3,3,11,28,10,318,47,31,20,164,,32,47,093,48*4C
$GPGLL,3542.05214,N,05123.45932,E,090446.00,A,A*68
$GPRMC,090447.00,A,3542.05230,N,05123.45896,E,0.004,,280823,,,A*7E
$GPVTG,,T,,M,0.004,N,0.007,K,A*20
$GPGGA,090447.00,3542.05230,N,05123.45896,E,1,07,1.15,1320.8,M,-17.6,M,,*42
$GPGSA,A,3,27,32,10,03,28,01,08,,,,,,2.18,1.15,1.85*05
$GPGSV,3,1,11,01,30,299,48,02,51,312,,03,15,236,47,08,79,247,48*79
$GPGSV,3,2,11,10,30,046,48,18,04,053,47,23,04,087,,27,52,156,48*7A
$GPGSV,3,3,11,28,10,318,47,31,20,164,,32,47,093,48*4C
$GPGLL,3542.05230,N,05123.45896,E,090447.00,A,A*60
$GPRMC,090448.00,A,3542.05255,N,05123.45865,E,0.065,,280823,,,A*79
$GPVTG,,T,,M,0.065,N,0.121,K,A*22
$GPGGA,090448.00,3542.05255,N,05123.45865,E,1,07,1.15,1322.2,M,-17.6,M,,*4A
$GPGSA,A,3,27,32,10,03,28,01,08,,,,,,2.18,1.15,1.85*05
$GPGSV,3,1,11,01,30,299,44,02,51,312,,03,15,236,44,08,79,247,45*7B
$GPGSV,3,2,11,10,30,046,44,18,04,053,43,23,04,087,,27,52,156,45*7F
$GPGSV,3,3,11,28,10,318,43,31,20,164,,32,47,093,45*45
$GPGLL,3542.05255,N,05123.45865,E,090448.00,A,A*60
$GPRMC,090449.00,A,3542.05272,N,05123.45837,E,0.023,,280823,,,A*78
$GPVTG,,T,,M,0.023,N,0.042,K,A*24
$GPGGA,090449.00,3542.05272,N,05123.45837,E,1,07,1.15,1323.3,M,-17.6,M,,*49
$GPGSA,A,3,27,32,10,03,28,01,08,,,,,,2.18,1.15,1.85*05
$GPGSV,3,1,11,01,30,299,46,02,51,312,,03,15,236,46,08,79,247,47*79
$GPGSV,3,2,11,10,30,046,46,18,04,053,46,23,04,087,,27,52,156,47*7A
$GPGSV,3,3,11,28,10,318,45,31,20,164,,32,47,093,47*41
$GPGLL,3542.05272,N,05123.45837,E,090449.00,A,A*63
$GPRMC,090450.00,A,3542.05289,N,05123.45812,E,0.015,,280823,,,A*76
$GPVTG,,T,,M,0.015,N,0.029,K,A*2C
$GPGGA,090450.00,3542.05289,N,05123.45812,E,1,07,1.15,1324.2,M,-17.6,M,,*44
$GPGSA,A,3,27,32,10,03,28,01,08,,,,,,2.18,1.15,1.85*05
$GPGSV,3,1,11,01,30,299,48,02,51,312,,03,15,236,47,08,79,247,48*79
$GPGSV,3,2,11,10,30,046,48,18,04,053,46,23,04,087,,27,52,156,48*7B
$GPGSV,3,3,11,28,10,318,47,31,20,164,,32,47,093,48*4C
$GPGLL,3542.05289,N,05123.45812,E,090450.00,A,A*68
$GPRMC,090451.00,A,3542.05303,N,05123.45788,E,0.178,,280823,,,A*72
$GPVTG,,T,,M,0.178,N,0.330,K,A*2D
$GPGGA,090451.00,3542.05303,N,05123.45788,E,1,08,1.15,1325.2,M,-17.6,M,,*44
$GPGSA,A,3,27,32,02,10,03,28,01,08,,,,,2.18,1.15,1.85*07
$GPGSV,3,1,11,01,30,299,47,02,51,312,32,03,15,236,46,08,79,247,47*79
$GPGSV,3,2,11,10,30,046,46,18,04,053,46,23,04,087,34,27,52,156,47*7D
$GPGSV,3,3,11,28,10,318,46,31,20,164,,32,47,093,47*42
$GPGLL,3542.05303,N,05123.45788,E,090451.00,A,A*66

